{"7704.638646826194": [{"url": "http://88.84.191.230/speedtest/upload.php", "lat": "70.0733", "lon": "29.7497", "name": "Vadso", "country": "Norway", "cc": "NO", "sponsor": "Varanger KraftUtvikling AS", "id": "4600", "url2": "http://speedmonster.varangerbynett.no/speedtest/upload.php", "host": "88.84.191.230:8080", "d": 7704.638646826194}], "7742.163322729688": [{"url": "http://speedtest.nornett.net/speedtest/upload.php", "lat": "69.9403", "lon": "23.3106", "name": "Alta", "country": "Norway", "cc": "NO", "sponsor": "Nornett AS", "id": "4961", "url2": "http://speedtest2.nornett.net/speedtest/upload.php", "host": "speedtest.nornett.net:8080", "d": 7742.163322729688}, {"url": "http://speedo.eltele.no/speedtest/upload.php", "lat": "69.9403", "lon": "23.3106", "name": "Alta", "country": "Norway", "cc": "NO", "sponsor": "Eltele AS", "id": "3433", "host": "speedo.eltele.no:8080", "d": 7742.163322729688}], "7763.126190261318": [{"url": "http://tos.speedtest.as2116.net/speedtest/upload.php", "lat": "69.6492", "lon": "18.9553", "name": "Troms\u00f8", "country": "Norway", "cc": "NO", "sponsor": "Broadnet", "id": "11786", "host": "tos.speedtest.as2116.net:8080", "d": 7763.126190261318}], "7565.162728010997": [{"url": "http://murmansk.speedtest.rt.ru/speedtest/upload.php", "lat": "68.9543", "lon": "33.1076", "name": "Murmansk", "country": "Russian Federation", "cc": "RU", "sponsor": "Rostelecom", "id": "3522", "url2": "http://murmansk.speedtest2.rt.ru/speedtest/upload.php", "host": "murmansk.speedtest.rt.ru:8080", "d": 7565.162728010997}, {"url": "http://mrm1.bigspeedtest.netbynet.ru/speedtest/upload.php", "lat": "68.9543", "lon": "33.1076", "name": "Murmansk", "country": "Russian Federation", "cc": "RU", "sponsor": "Net By Net Holding LLC", "id": "11072", "host": "mrm-speedtest-srv02.ti.ru:8080", "d": 7565.162728010997}, {"url": "http://speedtest.mmsn.ru/speedtest/upload.php", "lat": "68.9543", "lon": "33.1076", "name": "Murmansk", "country": "Russian Federation", "cc": "RU", "sponsor": "M2C", "id": "1521", "url2": "http://pingtest.mmsn.ru/speedtest/upload.php", "host": "speedtest.mmsn.ru:8080", "d": 7565.162728010997}], "7713.533786988902": [{"url": "http://ookla.trollfjord.no/speedtest/upload.php", "lat": "68.5656", "lon": "14.9042", "name": "Stokmarknes", "country": "Norway", "cc": "NO", "sponsor": "Trollfjord Broadband AS", "id": "4755", "url2": "http://ookla01.trollfjord.no/speedtest/upload.php", "host": "ookla.trollfjord.no:8080", "d": 7713.533786988902}], "7475.449284470072": [{"url": "http://speedtest.oltv.ru/speedtest/upload.php", "lat": "68.1500", "lon": "33.2833", "name": "Olenegorsk", "country": "Russian Federation", "cc": "RU", "sponsor": "SC Oltelecom", "id": "1996", "url2": "http://st.oltv.ru/speedtest/upload.php", "host": "speedtest.oltv.ru:8080", "d": 7475.449284470072}], "7410.410766400506": [{"url": "http://speedtest-ap.murm.pro/speedtest/upload.php", "lat": "67.5667", "lon": "33.4000", "name": "Apatity", "country": "Russian Federation", "cc": "RU", "sponsor": "Citylink Ltd", "id": "4980", "url2": "http://speedtest-ap2.murm.pro/speedtest/upload.php", "host": "speedtest-ap.murm.pro:8080", "d": 7410.410766400506}, {"url": "http://speedtest.apanet.ru/speedtest/upload.php", "lat": "67.5667", "lon": "33.4000", "name": "Apatity", "country": "RU", "cc": "RU", "sponsor": "ApaNet", "id": "17834", "host": "speedtest.apanet.ru:8080", "d": 7410.410766400506}], "7593.7280787072705": [{"url": "http://speedtest.signal.no/speedtest/upload.php", "lat": "67.2833", "lon": "14.3833", "name": "Bod\u00f8", "country": "Norway", "cc": "NO", "sponsor": "Signal Broadband AS", "id": "3308", "url2": "http://monster.signal.no/speedtest/upload.php", "host": "speedtest.signal.no:8080", "d": 7593.7280787072705}], "7593.0373524681645": [{"url": "http://boo-jern-speedtest1.altibox.net/upload.php", "lat": "67.2804", "lon": "14.4049", "name": "Bod\u00f8", "country": "Norway", "cc": "NO", "sponsor": "Altibox AS", "id": "14444", "host": "boo-jern-speedtest1.altibox.net:8080", "d": 7593.0373524681645}], "7630.85718931659": [{"url": "http://proftelekom.ru/speedtest/upload.php", "lat": "66.6572", "lon": "66.4183", "name": "Labytnangi", "country": "RU", "cc": "RU", "sponsor": "Proftelekom-Service", "id": "17562", "host": "proftelekom.ru:8080", "d": 7630.85718931659}], "7623.141683309559": [{"url": "http://salehard.speedtest.rt.ru/speedtest/upload.php", "lat": "66.5333", "lon": "66.6000", "name": "Salekhard", "country": "Russian Federation", "cc": "RU", "sponsor": "Rostelecom", "id": "2601", "url2": "http://salehard.speedtest2.rt.ru/speedtest/upload.php", "host": "salehard.speedtest.rt.ru:8080", "d": 7623.141683309559}, {"url": "http://cache.connect-online.ru/speedtest/upload.php", "lat": "66.5333", "lon": "66.6000", "name": "Salekhard", "country": "RU", "cc": "RU", "sponsor": "JSC \"CONNECT\"", "id": "17819", "host": "cache.connect-online.ru:8080", "d": 7623.141683309559}, {"url": "http://speedtest.ytc.ru/speedtest/upload.php", "lat": "66.5333", "lon": "66.6000", "name": "Salekhard", "country": "Russian Federation", "cc": "RU", "sponsor": "Yamaltelecom", "id": "15323", "host": "speedtest.ytc.ru:8080", "d": 7623.141683309559}], "7848.935389237082": [{"url": "http://novyurengoi.speedtest.rt.ru/speedtest/upload.php", "lat": "66.0833", "lon": "76.6833", "name": "Novy Urengoy", "country": "Russian Federation", "cc": "RU", "sponsor": "Rostelecom", "id": "3484", "url2": "http://novyurengoi.speedtest2.rt.ru/speedtest/upload.php", "host": "novyurengoi.speedtest.rt.ru:8080", "d": 7848.935389237082}, {"url": "http://nurg1.bigspeedtest.netbynet.ru/speedtest/upload.php", "lat": "66.0833", "lon": "76.6833", "name": "Novy Urengoy", "country": "Russian Federation", "cc": "RU", "sponsor": "Net By Net Holding LLC", "id": "11074", "host": "nurg-speedtest-srv02.ti.ru:8080", "d": 7848.935389237082}, {"url": "http://sp1.sigma-ktv.ru/speedtest/upload.php", "lat": "66.0833", "lon": "76.6833", "name": "Novy Urengoy", "country": "Russian Federation", "cc": "RU", "sponsor": "JSC Sigma-KTV", "id": "6256", "url2": "http://sp2.yamal-kontinent.ru/speedtest/upload.php", "host": "sp1.sigma-ktv.ru:8080", "d": 7848.935389237082}], "8647.98864788854": [{"url": "http://speed.smartnet.is/speedtest/upload.php", "lat": "66.0751", "lon": "-23.1212", "name": "Isafjordur", "country": "Iceland", "cc": "IS", "sponsor": "Snerpa", "id": "3644", "url2": "http://speed2.smartnet.is/speedtest/upload.php", "host": "speed.smartnet.is:8080", "d": 8647.98864788854}], "7391.238930727402": [{"url": "http://test.usinsknet.ru/speedtest/upload.php", "lat": "66.0000", "lon": "57.5333", "name": "Usinsk", "country": "Russian Federation", "cc": "RU", "sponsor": "Swift Telecom", "id": "3693", "host": "test.usinsknet.ru:8080", "d": 7391.238930727402}], "8428.389673841051": [{"url": "http://sp1.tengir.is/upload.aspx", "lat": "65.6885", "lon": "-18.1262", "name": "Akureyri", "country": "Iceland", "cc": "IS", "sponsor": "Tengir hf", "id": "10661", "url2": "http://sp2.tengir.is/upload.aspx", "host": "sp1.tengir.is:8080", "d": 8428.389673841051}], "7681.178904863935": [{"url": "http://st.home-nadym.ru/speedtest/upload.php", "lat": "65.5333", "lon": "72.5167", "name": "Nadym", "country": "Russian Federation", "cc": "RU", "sponsor": "interService", "id": "3106", "url2": "http://home-nadym.ru/speedtest/speedtest/upload.php", "host": "st.home-nadym.ru:8080", "d": 7681.178904863935}, {"url": "http://sp1.nadym.tv/speedtest/upload.php", "lat": "65.5333", "lon": "72.5167", "name": "Nadym", "country": "Russian Federation", "cc": "RU", "sponsor": "VKS-Internet", "id": "4856", "url2": "http://sp2.nadym.tv/speedtest/upload.php", "host": "sp1.nadym.tv:8080", "d": 7681.178904863935}], "7189.4615479312615": [{"url": "http://speedtest.netplaza.fi/speedtest/upload.php", "lat": "65.0167", "lon": "25.4667", "name": "Oulu", "country": "Finland", "cc": "FI", "sponsor": "Netplaza Oy", "id": "2138", "url2": "http://speedtest2.netplaza.fi/speedtest/upload.php", "host": "speedtest.netplaza.fi:8080", "d": 7189.4615479312615}], "12007.695306548829": [{"url": "http://ana.speedtest-dvf.megafon.ru/speedtest/upload.php", "lat": "64.7333", "lon": "177.5167", "name": "Anadyr", "country": "Russian Federation", "cc": "RU", "sponsor": "MegaFon", "id": "5643", "url2": "http://ana.sp-dvf.megafon.ru/speedtest/upload.php", "host": "ana.speedtest-dvf.megafon.ru:8080", "d": 12007.695306548829}], "7105.08981500552": [{"url": "http://speedtest-ks.karelia.pro/speedtest/upload.php", "lat": "64.6833", "lon": "30.8167", "name": "Kostomuksha", "country": "Russian Federation", "cc": "RU", "sponsor": "CityLink Ltd", "id": "7515", "url2": "http://speedtest-ks2.karelia.pro/speedtest/upload.php", "host": "speedtest-ks.karelia.pro:8080", "d": 7105.08981500552}], "7067.570527047912": [{"url": "http://arhangelsk.speedtest.rt.ru/speedtest/upload.php", "lat": "64.5333", "lon": "40.5333", "name": "Arkhangelsk", "country": "Russian Federation", "cc": "RU", "sponsor": "Rostelecom", "id": "2597", "url2": "http://arhangelsk.speedtest2.rt.ru/speedtest/upload.php", "host": "arhangelsk.speedtest.rt.ru:8080", "d": 7067.570527047912}, {"url": "http://sp1.net29.ru/upload.php", "lat": "64.5333", "lon": "40.5333", "name": "Arkhangels", "country": "Russian Federation", "cc": "RU", "sponsor": "Beeline", "id": "11063", "host": "sp1.net29.ru:8080", "d": 7067.570527047912}], "7079.878513747768": [{"url": "http://spdtest-1.kaisanet.fi/speedtest/speedtest/upload.php", "lat": "64.2250", "lon": "27.7333", "name": "Kajaani", "country": "Finland", "cc": "FI", "sponsor": "Kaisanet Oy", "id": "4565", "url2": "http://spdtest-2.kaisanet.fi/speedtest/speedtest/upload.php", "host": "spdtest-1.kaisanet.fi:8080", "d": 7079.878513747768}], "9894.807346017287": [{"url": "http://speedtest.telepost.gl/speedtest/upload.php", "lat": "64.1750", "lon": "-51.7389", "name": "Nuuk", "country": "Greenland", "cc": "GL", "sponsor": "Tele Greenland A/S", "id": "1066", "url2": "http://speedtest.telepost.gl/speedtest/upload.php", "host": "speedtest.tele.gl:8080", "d": 9894.807346017287}], "8501.141137638335": [{"url": "http://speedtest.siminn.is/mini/speedtest/upload.php", "lat": "64.1333", "lon": "-21.9333", "name": "Reykjavik", "country": "Iceland", "cc": "IS", "sponsor": "Siminn", "id": "4818", "url2": "http://speedtest2.siminn.is/mini/speedtest/upload.php", "host": "speedtest.siminn.is:8080", "d": 8501.141137638335}, {"url": "http://speedtest.c.is/speedtest/upload.php", "lat": "64.1333", "lon": "-21.9333", "name": "Reykjav\u00edk", "country": "Iceland", "cc": "IS", "sponsor": "Vodafone", "id": "4141", "url2": "http://speedtest2.c.is/speedtest/upload.php", "host": "speedtest.c.is:8080", "d": 8501.141137638335}, {"url": "http://speedtest1.nova.is/speedtest/upload.aspx", "lat": "64.1333", "lon": "-21.9333", "name": "Reykjavik", "country": "Iceland", "cc": "IS", "sponsor": "Nova", "id": "3684", "host": "speedtest1.nova.is:8080", "d": 8501.141137638335}, {"url": "http://speedtest.sip.is/speedtest/upload.php", "lat": "64.1333", "lon": "-21.9333", "name": "Reykjavik", "country": "Iceland", "cc": "IS", "sponsor": "Simafelagid", "id": "10650", "url2": "http://speedtest2.sip.is/speedtest/upload.php", "host": "speedtest.sip.is:8080", "d": 8501.141137638335}, {"url": "http://speedtest01.gagnaveita.is/upload.php", "lat": "64.1333", "lon": "-21.9333", "name": "Reykjavik", "country": "Iceland", "cc": "IS", "sponsor": "Gagnaveita Reykjavikur", "id": "6471", "host": "speedtest01.gagnaveita.is:8080", "d": 8501.141137638335}, {"url": "http://speedtest.andranet.is/upload.php", "lat": "64.1333", "lon": "-21.9333", "name": "Reykjavik", "country": "Iceland", "cc": "IS", "sponsor": "AndraNET", "id": "10588", "url2": "http://speedtest2.andranet.is/upload.php", "host": "speedtest.andranet.is:8080", "d": 8501.141137638335}, {"url": "http://speedtest.hringidan.is/upload.php", "lat": "64.1333", "lon": "-21.9333", "name": "Reykjavik", "country": "Iceland", "cc": "IS", "sponsor": "Hringidan", "id": "16148", "host": "speedtest.hringidan.is:8080", "d": 8501.141137638335}, {"url": "http://speedtest.hringdu.is/upload.php", "lat": "64.1333", "lon": "-21.9333", "name": "Reykjav\u00edk", "country": "IS", "cc": "IS", "sponsor": "Hringdu", "id": "17455", "host": "speedtest.hringdu.is:8080", "d": 8501.141137638335}], "12776.691349755287": [{"url": "http://speedtest.whitestone.link/upload.php", "lat": "64.0378", "lon": "-145.7322", "name": "Delta Junction, AK", "country": "United States", "cc": "US", "sponsor": "Whitestone Power & Communications", "id": "13679", "host": "speedtest.whitestone.link:8080", "d": 12776.691349755287}, {"url": "http://speedtest3.verticalbroadband.com/speedtest/upload.php", "lat": "64.0378", "lon": "-145.7322", "name": "Delta Junction, AK", "country": "United States", "cc": "US", "sponsor": "Vertical Broadband LLC", "id": "10094", "url2": "http://speedtest2.verticalbroadband.com/speedtest/upload.php", "host": "speedtest.verticalbroadband.com:8080", "d": 12776.691349755287}], "7135.1637421417145": [{"url": "http://ookla-umea.alltele.net/upload.php", "lat": "63.8258", "lon": "20.2630", "name": "Umea", "country": "Sweden", "cc": "SE", "sponsor": "AllTele AB", "id": "10928", "url2": "http://ookla-umea.t3.se/upload.php", "host": "ookla-umea.alltele.net:8080", "d": 7135.1637421417145}], "6982.808483548406": [{"url": "http://speedtest-sg.karelia.pro/speedtest/upload.php", "lat": "63.7388", "lon": "34.3098", "name": "Segezha", "country": "Russian Federation", "cc": "RU", "sponsor": "CityLink Ltd", "id": "8657", "url2": "http://speedtest-sg2.karelia.pro/speedtest/upload.php", "host": "speedtest-sg.karelia.pro:8080", "d": 6982.808483548406}], "7080.450929035672": [{"url": "http://speed1.multi.fi/speedtest/upload.aspx", "lat": "63.6667", "lon": "22.7000", "name": "Jakobstad", "country": "Finland", "cc": "FI", "sponsor": "JNT", "id": "6875", "url2": "http://speed2.multi.fi/speedtest/upload.aspx", "host": "speed1.multi.fi:8080", "d": 7080.450929035672}, {"url": "http://speed1.homeip.net/upload.php", "lat": "63.6667", "lon": "22.7000", "name": "Jakobstad", "country": "Finland", "cc": "FI", "sponsor": "Mati forsman", "id": "17254", "host": "mati.homeip.net:8080", "d": 7080.450929035672}], "7071.806307493527": [{"url": "http://speedtest2.homeip.net/upload.php", "lat": "63.5975", "lon": "22.7889", "name": "Benn\u00e4s", "country": "Finland", "cc": "FI", "sponsor": "Storbackas", "id": "11898", "host": "speedtest2.homeip.net:8080", "d": 7071.806307493527}], "7302.674412788567": [{"url": "http://speedtest.itsjefen.no/speedtest/upload.php", "lat": "63.4297", "lon": "10.3933", "name": "Trondheim", "country": "Norway", "cc": "NO", "sponsor": "ITsjefen AS", "id": "1252", "url2": "http://speedtest.vdc.no/speedtest/upload.php", "host": "speedtest.itsjefen.no:8080", "d": 7302.674412788567}], "7323.210927110321": [{"url": "http://speedtest1.hemnenett.no/upload.php", "lat": "63.2906", "lon": "9.0891", "name": "Kyrks\u00e6ter\u00f8ra", "country": "Norway", "cc": "NO", "sponsor": "Sodvin Energi og Fiber AS", "id": "11253", "host": "speedtest1.hemnenett.no:8080", "d": 7323.210927110321}], "7569.077794310361": [{"url": "http://noyabrsk.speedtest.rt.ru/speedtest/upload.php", "lat": "63.2000", "lon": "75.4500", "name": "Noyabrsk", "country": "Russian Federation", "cc": "RU", "sponsor": "Rostelecom", "id": "4281", "url2": "http://noyabrsk.speedtest2.rt.ru/speedtest/upload.php", "host": "noyabrsk.speedtest.rt.ru:8080", "d": 7569.077794310361}, {"url": "http://speed.global-x.ru/speedtest/upload.php", "lat": "63.2000", "lon": "75.4500", "name": "Noyabrsk", "country": "Russian Federation", "cc": "RU", "sponsor": "Sever-Svyaz", "id": "2017", "url2": "http://speedtest.global-x.ru/speedtest/upload.php", "host": "speed.global-x.ru:8080", "d": 7569.077794310361}, {"url": "http://noyabrsk.speedtest-uf.megafon.ru/speedtest/upload.php", "lat": "63.2000", "lon": "75.4500", "name": "Noyabrsk", "country": "Russia", "cc": "RU", "sponsor": "MegaFon", "id": "17032", "host": "noyabrsk.speedtest-uf.megafon.ru:8080", "d": 7569.077794310361}], "6890.698510321623": [{"url": "http://speedtest-mg.karelia.pro/speedtest/upload.php", "lat": "62.9132", "lon": "34.4619", "name": "Medvezhyegorsk", "country": "Russian Federation", "cc": "RU", "sponsor": "CityLink Ltd", "id": "8658", "url2": "http://speedtest-mg2.karelia.pro/speedtest/upload.php", "host": "speedtest-mg.karelia.pro:8080", "d": 6890.698510321623}], "7271.806402131519": [{"url": "http://speedtest01.sucom.no/speedtest/upload.php", "lat": "62.6128", "lon": "8.6342", "name": "Sunndalsora", "country": "Norway", "cc": "NO", "sponsor": "SuCom AS", "id": "4197", "url2": "http://speedtest02.sucom.no/speedtest/upload.php", "host": "speedtest01.sucom.no:8080", "d": 7271.806402131519}], "7329.318106140053": [{"url": "http://speed1.mimer.no/upload.php", "lat": "62.4778", "lon": "6.1903", "name": "Alesund", "country": "Norway", "cc": "NO", "sponsor": "Tafjord Marked AS", "id": "8070", "url2": "http://speed2.mimer.no/upload.php", "host": "speed1.mimer.no:8080", "d": 7329.318106140053}, {"url": "http://speed2.stayon.no/speedtest/upload.php", "lat": "62.4778", "lon": "6.1903", "name": "Alesund", "country": "Norway", "cc": "NO", "sponsor": "StayOn", "id": "4039", "url2": "http://speed3.stayon.no/speedtest/upload.php", "host": "speed2.stayon.no:8080", "d": 7329.318106140053}], "12590.801284733177": [{"url": "http://yk-netspeed.nwtel.ca/speedtest/upload.php", "lat": "62.4422", "lon": "-114.3975", "name": "Yellowknife, NT", "country": "Canada", "cc": "CA", "sponsor": "Northwestel Inc.", "id": "13139", "host": "yk-netspeed.nwtel.ca:8080", "d": 12590.801284733177}, {"url": "http://yk-speedtest01.ssimicro.com/speedtest/upload.php", "lat": "62.4422", "lon": "-114.3975", "name": "Yellowknife, NT", "country": "Canada", "cc": "CA", "sponsor": "SSI Micro", "id": "1843", "url2": "http://yk-speedtest02.ssimicro.com/speedtest/upload.php", "host": "yk-speedtest01.ssimicro.com:8080", "d": 12590.801284733177}], "7309.449760786673": [{"url": "http://speedtest.pcsupport.no/upload.php", "lat": "62.3919", "lon": "6.5980", "name": "Sykkylven", "country": "Norway", "cc": "NO", "sponsor": "PC Support AS", "id": "14760", "host": "speedtest.pcsupport.no:8080", "d": 7309.449760786673}], "6885.870450040802": [{"url": "http://nopeustesti.ksvvnet.fi/upload.php", "lat": "62.2333", "lon": "25.7333", "name": "Jyvaskyla", "country": "Finland", "cc": "FI", "sponsor": "Keski-Suomen Valokuituverkot Oy", "id": "9681", "url2": "http://nopeustesti2.ksvvnet.fi/upload.php", "host": "nopeustesti2.ksvvnet.fi:8080", "d": 6885.870450040802}, {"url": "http://speedtest.seltimil.com/speedtest/upload.php", "lat": "62.2333", "lon": "25.7333", "name": "Jyvaskyla", "country": "Finland", "cc": "FI", "sponsor": "Seltimil Oy", "id": "3038", "url2": "http://speedtest.seltimil.net/speedtest/upload.php", "host": "speedtest.seltimil.com:8080", "d": 6885.870450040802}], "7305.815997531783": [{"url": "http://sp1.tussa.com/upload.php", "lat": "62.1981", "lon": "6.1276", "name": "Orsta", "country": "Norway", "cc": "NO", "sponsor": "Tussa IKT AS", "id": "10585", "url2": "http://sp2.tussa.com/upload.php", "host": "sp1.tussa.com:8080", "d": 7305.815997531783}], "7172.805780290582": [{"url": "http://speedtest.nyagan.net/speedtest/upload.php", "lat": "62.1333", "lon": "65.3833", "name": "Nyagan", "country": "Russian Federation", "cc": "RU", "sponsor": "OJSC.MTS", "id": "1809", "url2": "http://testspeed.nyagan.net/speedtest/upload.php", "host": "speedtest.nyagan.net:8080", "d": 7172.805780290582}, {"url": "http://speedtest-n1.icom.net.ru/speedtest/upload.php", "lat": "62.1333", "lon": "65.3833", "name": "Nyagan", "country": "Russian Federation", "cc": "RU", "sponsor": "iCOM", "id": "6374", "url2": "http://speedtest-n2.icom.net.ru/speedtest/upload.php", "host": "speedtest-n1.icom.net.ru:8080", "d": 7172.805780290582}], "9999.695507029213": [{"url": "http://yakutsk.speedtest.rt.ru/speedtest/upload.php", "lat": "62.0333", "lon": "129.7333", "name": "Yakutsk", "country": "Russia", "cc": "RU", "sponsor": "Rostelecom", "id": "4480", "url2": "http://yakutsk.speedtest2.rt.ru/speedtest/upload.php", "host": "yakutsk.speedtest.rt.ru:8080", "d": 9999.695507029213}, {"url": "http://ykt.speedtest-dvf.megafon.ru/speedtest/upload.php", "lat": "62.0333", "lon": "129.7333", "name": "Yakutsk", "country": "Russian Federation", "cc": "RU", "sponsor": "MegaFon", "id": "5647", "url2": "http://ykt.sp-dvf.megafon.ru/speedtest/upload.php", "host": "ykt.speedtest-dvf.megafon.ru:8080", "d": 9999.695507029213}, {"url": "http://speedtest-yak.mtsdv.ru/speedtest/upload.php", "lat": "62.0333", "lon": "129.7333", "name": "Yakutsk", "country": "Russian Federation", "cc": "RU", "sponsor": "MTS Yakutsk", "id": "9679", "url2": "http://speedtest-yak1.mtsdv.ru/speedtest/upload.php", "host": "speedtest-yak.mtsdv.ru:8080", "d": 9999.695507029213}, {"url": "http://speedtest.vykt.ru/upload.php", "lat": "62.0333", "lon": "129.7333", "name": "Yakutsk", "country": "Russian Federation", "cc": "RU", "sponsor": "K-Service", "id": "12676", "host": "speedtest.vykt.ru:8080", "d": 9999.695507029213}], "7739.123049447351": [{"url": "http://speedtest1.internet.fo/speedtest/upload.php", "lat": "62.0000", "lon": "-6.7833", "name": "Torshavn", "country": "Faroe Islands", "cc": "FO", "sponsor": "Faroese Telecom", "id": "462", "url2": "http://speedtest2.internet.fo/speedtest/upload.php", "host": "speedtest1.internet.fo:8080", "d": 7739.123049447351}], "6765.856361458042": [{"url": "http://speedtest.sampo.ru/speedtest/upload.php", "lat": "61.7833", "lon": "34.3333", "name": "Petrozavodsk", "country": "Russian Federation", "cc": "RU", "sponsor": "Svyazservice LTD", "id": "5966", "url2": "http://speedtest2.sampo.ru/speedtest/upload.php", "host": "speedtest.sampo.ru:8080", "d": 6765.856361458042}, {"url": "http://speedtest-ptz.citylink-rk.ru/speedtest/upload.php", "lat": "61.7833", "lon": "34.3333", "name": "Petrozavodsk", "country": "Russian Federation", "cc": "RU", "sponsor": "CityLink Ltd", "id": "1712", "host": "speedtest-ptz.citylink-rk.ru:8080", "d": 6765.856361458042}], "6778.154705364588": [{"url": "http://speedtest-st.karelia.pro/speedtest/upload.php", "lat": "61.7045", "lon": "30.6879", "name": "Sortavala", "country": "Russian Federation", "cc": "RU", "sponsor": "CityLink Ltd", "id": "8656", "url2": "http://speedtest-st2.karelia.pro/speedtest/upload.php", "host": "speedtest-st.karelia.pro:8080", "d": 6778.154705364588}], "6808.669587771278": [{"url": "http://speedtest1.mpynet.fi/speedtest/upload.php", "lat": "61.6887", "lon": "27.2721", "name": "Mikkeli", "country": "Finland", "cc": "FI", "sponsor": "MPY Palvelut Oyj", "id": "10343", "url2": "http://speedtest2.mpynet.fi/speedtest/upload.php", "host": "speedtest.mpynet.fi:8080", "d": 6808.669587771278}], "6831.907407845873": [{"url": "http://speedtest1.syktyvkar.beeline.ru/speedtest/upload.php", "lat": "61.6667", "lon": "50.8167", "name": "Syktyvkar", "country": "Russian Federation", "cc": "RU", "sponsor": "Beeline", "id": "6574", "url2": "http://speedtest2.syktyvkar.beeline.ru/speedtest/upload.php", "host": "speedtest1.syktyvkar.beeline.ru:8080", "d": 6831.907407845873}, {"url": "http://speedtest2.ttksever.ru/speedtest/upload.php", "lat": "61.6667", "lon": "50.8167", "name": "Syktyvkar", "country": "Russian Federation", "cc": "RU", "sponsor": "CJSC \"SeverTransTeleCom\"", "id": "3173", "url2": "http://speedtest3.ttksever.ru/speedtest/upload.php", "host": "speedtest2.ttksever.ru:8080", "d": 6831.907407845873}, {"url": "http://speedtest1.ksinet.ru/speedtest/upload.php", "lat": "61.6667", "lon": "50.8167", "name": "Syktyvkar", "country": "Russian Federation", "cc": "RU", "sponsor": "I-Way", "id": "10552", "url2": "http://speedtest2.ksinet.ru/speedtest/upload.php", "host": "speedtest1.ksinet.ru:8080", "d": 6831.907407845873}, {"url": "http://syktyvkar4g.speedtest.rt.ru/speedtest/upload.php", "lat": "61.6667", "lon": "50.8167", "name": "Syktyvkar", "country": "Russian Federation", "cc": "RU", "sponsor": "Rostelecom", "id": "15435", "host": "syktyvkar4g.speedtest.rt.ru:8080", "d": 6831.907407845873}, {"url": "http://siktivkar.speedtest-uf.megafon.ru/speedtest/upload.php", "lat": "61.6667", "lon": "50.8167", "name": "Syktyvkar", "country": "Russia", "cc": "RU", "sponsor": "MegaFon", "id": "17042", "host": "siktivkar.speedtest-uf.megafon.ru:8080", "d": 6831.907407845873}], "6833.996019897726": [{"url": "http://speedtest.tamico.com/speedtest/upload.asp", "lat": "61.5000", "lon": "23.7667", "name": "Tampere", "country": "Finland", "cc": "FI", "sponsor": "Tamico Oy", "id": "1698", "url2": "http://31.47.64.74/speedtest/upload.asp", "host": "speedtest.tamico.com:8080", "d": 6833.996019897726}], "7244.418707894633": [{"url": "http://speedtest.enivest.net/speedtest/upload.php", "lat": "61.4431", "lon": "5.9036", "name": "Forde", "country": "Norway", "cc": "NO", "sponsor": "Enivest AS", "id": "899", "url2": "http://217.149.113.142/speedtest/upload.php", "host": "speedtest.enivest.net:8080", "d": 7244.418707894633}], "13055.23265840013": [{"url": "http://speedtest1.mtaonline.net/speedtest/upload.asp", "lat": "61.3214", "lon": "-149.5678", "name": "Palmer, AK", "country": "United States", "cc": "US", "sponsor": "MTA Communications", "id": "3571", "host": "speedtest1.mtaonline.net:8080", "d": 13055.23265840013}], "7336.311680887688": [{"url": "http://speedtest.surgut.mts.ru/speedtest/upload.php", "lat": "61.2667", "lon": "73.4000", "name": "Surgut", "country": "Russian Federation", "cc": "RU", "sponsor": "MTS", "id": "6113", "url2": "http://speedtest2.surgut.mts.ru/speedtest/upload.php", "host": "speedtest.surgut.mts.ru:8080", "d": 7336.311680887688}, {"url": "http://speedtest.sg.metro-set.ru/speedtest/upload.php", "lat": "61.2667", "lon": "73.4000", "name": "Surgut", "country": "Russian Federation", "cc": "RU", "sponsor": "METROSET", "id": "2313", "host": "speedtest.sg.metro-set.ru:8080", "d": 7336.311680887688}, {"url": "http://surgut.speedtest-uf.megafon.ru/speedtest/upload.php", "lat": "61.2667", "lon": "73.4000", "name": "Surgut", "country": "Russia", "cc": "RU", "sponsor": "MegaFon", "id": "17033", "host": "surgut.speedtest-uf.megafon.ru:8080", "d": 7336.311680887688}], "6739.563663440885": [{"url": "http://speedtest.int29.ru/speedtest/upload.php", "lat": "61.2500", "lon": "46.6500", "name": "Kotlas", "country": "Russian Federation", "cc": "RU", "sponsor": "OOO Internet29", "id": "7964", "url2": "http://speedtest2.int29.ru/speedtest/upload.php", "host": "speedtest.int29.ru:8080", "d": 6739.563663440885}, {"url": "http://speedtest.astra-sever.ru/speedtest/upload.php", "lat": "61.2500", "lon": "46.6500", "name": "Kotlas", "country": "Russian Federation", "cc": "RU", "sponsor": "OOO Astra-sever", "id": "7837", "url2": "http://speedtest2.astra-sever.ru/speedtest/upload.php", "host": "speedtest.astra-sever.ru:8080", "d": 6739.563663440885}], "7170.680000891118": [{"url": "http://speedtest.ardalsnett.no/speedtest/upload.php", "lat": "61.2396", "lon": "7.7121", "name": "Ardalstangen", "country": "Norway", "cc": "NO", "sponsor": "Ardalsnett AS", "id": "15331", "host": "speedtest.ardalsnett.no:8080", "d": 7170.680000891118}], "7188.220383206766": [{"url": "http://speedtest.sognenett.no/speedtest/upload.php", "lat": "61.2298", "lon": "7.1005", "name": "Sogndal", "country": "Norway", "cc": "NO", "sponsor": "Sognenett AS", "id": "16182", "host": "speedtest.sognenett.no:8080", "d": 7188.220383206766}], "13063.879573744129": [{"url": "http://speedtest.anc.acsalaska.net/speedtest/upload.php", "lat": "61.2183", "lon": "-149.8991", "name": "Anchorage, AK", "country": "United States", "cc": "US", "sponsor": "Alaska Communications", "id": "980", "host": "speedtest.anc.acsalaska.net:8080", "d": 13063.879573744129}, {"url": "http://speedtest.gci.com/speedtest/upload.php", "lat": "61.2183", "lon": "-149.8991", "name": "Anchorage, AK", "country": "United States", "cc": "US", "sponsor": "GCI", "id": "1555", "url2": "http://speedtest2.gci.com/speedtest/upload.php", "host": "speedtest.gci.com:8080", "d": 13063.879573744129}], "13096.447056628964": [{"url": "http://speedtest.cvinternet.net/upload.php", "lat": "61.1308", "lon": "-146.3483", "name": "Valdez, AK", "country": "United States", "cc": "US", "sponsor": "Copper Valley Internet", "id": "1409", "url2": "http://209.161.164.6/upload.php", "host": "speedtest.cvinternet.net:8080", "d": 13096.447056628964}], "7079.687706300689": [{"url": "http://speedtest.eidsiva.net/speedtest/upload.php", "lat": "61.1153", "lon": "10.4662", "name": "Lillehammer", "country": "Norway", "cc": "NO", "sponsor": "Eidsiva bredb\u00e5nd AS", "id": "15513", "host": "speedtest.eidsiva.net:8080", "d": 7079.687706300689}], "7296.8423080141765": [{"url": "http://speedtest.e-yugansk.ru/speedtest/upload.php", "lat": "61.0833", "lon": "72.7000", "name": "Nefteyugansk", "country": "Russian Federation", "cc": "RU", "sponsor": "E-YUGANSK", "id": "9971", "host": "speedtest.e-yugansk.ru:8080", "d": 7296.8423080141765}], "7412.6709995791025": [{"url": "http://spt1.megion.biz/speedtest/upload.php", "lat": "61.0500", "lon": "76.1000", "name": "Megion", "country": "Russian Federation", "cc": "RU", "sponsor": "LLC \"Megion-Link\"", "id": "7312", "host": "spt1.megion.biz:8080", "d": 7412.6709995791025}], "6770.272672749726": [{"url": "http://speedtest.aina.net/speedtest/upload.php", "lat": "61.0000", "lon": "24.4667", "name": "Hameenlinna", "country": "Finland", "cc": "FI", "sponsor": "AinaCom Oy", "id": "4113", "url2": "http://hml-speedtest.aina.net/speedtest/upload.php", "host": "speedtest.aina.net:8080", "d": 6770.272672749726}], "7170.288351420902": [{"url": "http://hanty-mansiisk.speedtest.rt.ru/speedtest/upload.php", "lat": "61.0000", "lon": "69.0000", "name": "Khanty-Mansiysk", "country": "Russian Federation", "cc": "RU", "sponsor": "Rostelecom", "id": "3524", "url2": "http://hanty-mansiisk.speedtest2.rt.ru/speedtest/upload.php", "host": "hanty-mansiisk.speedtest.rt.ru:8080", "d": 7170.288351420902}], "7418.867958198063": [{"url": "http://speedtest3.sib.comstar-r.ru/speedtest/upload.php", "lat": "60.9333", "lon": "76.5333", "name": "Nizhnevartovsk", "country": "Russian Federation", "cc": "RU", "sponsor": "MTS", "id": "2063", "url2": "http://speedtest4.sib.comstar-r.ru/speedtest/upload.php", "host": "speedtest3.sib.comstar-r.ru:8080", "d": 7418.867958198063}, {"url": "http://st0-nv.avantel.ru/speedtest/upload.php", "lat": "60.9333", "lon": "76.5333", "name": "Nizhnevartovsk", "country": "Russia", "cc": "RU", "sponsor": "JSC Avantel", "id": "4547", "url2": "http://st1-nv.avantel.ru/speedtest/upload.php", "host": "st0-nv.avantel.ru:8080", "d": 7418.867958198063}, {"url": "http://speedtest.pride-net.ru/speedtest/upload.php", "lat": "60.9333", "lon": "76.5333", "name": "Nizhnevartovsk", "country": "Russian Federation", "cc": "RU", "sponsor": "Pride", "id": "2799", "url2": "http://speedtest.nv-net.ru/speedtest/upload.php", "host": "80.251.50.38:80", "d": 7418.867958198063}], "13126.53329149214": [{"url": "http://wh-netspeed.nwtel.ca/speedtest/upload.php", "lat": "60.7167", "lon": "-135.0500", "name": "Whitehorse, YT", "country": "Canada", "cc": "CA", "sponsor": "Northwestel Inc.", "id": "4400", "url2": "http://wh2-netspeed.nwtel.ca/speedtest/upload.php", "host": "wh-netspeed.nwtel.ca:8080", "d": 13126.53329149214}], "6687.632692535056": [{"url": "http://sp1.haminetti.net/speedtest/upload.php", "lat": "60.5667", "lon": "27.2000", "name": "Hamina", "country": "Finland", "cc": "FI", "sponsor": "Haminan Energia Oy", "id": "7871", "url2": "http://sp2.haminetti.net/speedtest/upload.php", "host": "sp1.haminetti.net:8080", "d": 6687.632692535056}], "13164.247387847061": [{"url": "http://speedtest.ctcak.net/speedtest/upload.php", "lat": "60.5424", "lon": "-145.7525", "name": "Cordova, AK", "country": "United States", "cc": "US", "sponsor": "Cordova Telephone Cooperative Inc.", "id": "10601", "url2": "http://speedtest.myctcak.com/speedtest/upload.php", "host": "speedtest.ctcak.net:8080", "d": 13164.247387847061}], "6746.368211888726": [{"url": "http://speedtest-tku.dtnet.fi/speedtest/upload.php", "lat": "60.4500", "lon": "22.2667", "name": "Turku", "country": "Finland", "cc": "FI", "sponsor": "Turun Datatekniikka Oy", "id": "1303", "host": "speedtest-tku.dtnet.fi:8080", "d": 6746.368211888726}], "7168.3226130177745": [{"url": "http://speedtest.dataoppdrag.no/speedtest/upload.php", "lat": "60.3894", "lon": "5.3300", "name": "Bergen", "country": "Norway", "cc": "NO", "sponsor": "DataOppdrag AS", "id": "2301", "url2": "http://speedtest2.dataoppdrag.no/speedtest/upload.php", "host": "speedtest.dataoppdrag.no:8080", "d": 7168.3226130177745}], "6696.098571075746": [{"url": "http://nopeus.vmhosting.fi/speedtest/upload.php", "lat": "60.2512", "lon": "24.0675", "name": "Lohja", "country": "Finland", "cc": "FI", "sponsor": "vmhosting.fi", "id": "17723", "host": "nopeus.vmhosting.fi:8080", "d": 6696.098571075746}], "6674.553809814809": [{"url": "http://speedtest1.saunalahti.fi/speedtest/upload.php", "lat": "60.1708", "lon": "24.9375", "name": "Helsinki", "country": "Finland", "cc": "FI", "sponsor": "Elisa Oyj", "id": "4549", "url2": "http://speedtest1-1.saunalahti.fi/speedtest/upload.php", "host": "speedtest1.saunalahti.fi:8080", "d": 6674.553809814809}, {"url": "http://sp1-speedtest-hki2.hosting.fi/speedtest/upload.php", "lat": "60.1708", "lon": "24.9375", "name": "Helsinki", "country": "Finland", "cc": "FI", "sponsor": "Nebula Oy", "id": "864", "url2": "http://sp2-speedtest-hki2.hosting.fi/speedtest/upload.php", "host": "speedtest-hki2.hosting.fi:8080", "d": 6674.553809814809}, {"url": "http://fast.internet.fi/speedtest/upload.php", "lat": "60.1708", "lon": "24.9375", "name": "Helsinki", "country": "Finland", "cc": "FI", "sponsor": "Datacenter Finland Oy", "id": "8185", "url2": "http://toofast.internet.fi/speedtest/upload.php", "host": "fast.internet.fi:8080", "d": 6674.553809814809}, {"url": "https://finprison.net/speedtest/upload.php", "lat": "60.1708", "lon": "24.9375", "name": "Helsinki", "country": "FI", "cc": "FI", "sponsor": "FINPRISON", "id": "17961", "host": "finprison.net:8080", "d": 6674.553809814809}], "6674.44421368733": [{"url": "http://speedtest.extra.telia.fi/upload.php", "lat": "60.1699", "lon": "24.9384", "name": "Helsinki", "country": "Finland", "cc": "FI", "sponsor": "Telia", "id": "14928", "host": "speedtest.extra.telia.fi:8080", "d": 6674.44421368733}], "6674.43492202535": [{"url": "http://nopeus.dna.fi/speedtest/upload.php", "lat": "60.1698", "lon": "24.9383", "name": "Helsinki", "country": "Finland", "cc": "FI", "sponsor": "DNA Welho Oy", "id": "14164", "host": "nopeus.dna.fi:8080", "d": 6674.43492202535}], "6610.733724882511": [{"url": "http://speedtest.xtrim.ru/speedtest/upload.php", "lat": "60.1444", "lon": "30.1938", "name": "Sertolovo", "country": "Russian Federation", "cc": "RU", "sponsor": "X-Trim Ltd", "id": "15510", "host": "speedtest.xtrim.ru:8080", "d": 6610.733724882511}], "6594.512330033977": [{"url": "http://speed.vsevnet.ru/speedtest/upload.php", "lat": "60.0333", "lon": "30.6667", "name": "Vsevolozhsk", "country": "Russian Federation", "cc": "RU", "sponsor": "Vsevnet", "id": "6320", "url2": "http://109.230.128.54/speedtest/upload.php", "host": "speed.vsevnet.ru:8080", "d": 6594.512330033977}, {"url": "http://sp1.xtelecom.ru/speedtest/upload.php", "lat": "60.0333", "lon": "30.6667", "name": "Vsevolozhsk", "country": "Russian Federation", "cc": "RU", "sponsor": "XTELECOM.RU", "id": "9752", "url2": "http://sp2.xtelecom.ru/speedtest/upload.php", "host": "speed.xtelecom.ru:8080", "d": 6594.512330033977}], "6960.423039996613": [{"url": "http://speedtest1.telenor.net/mini/speedtest/upload.php", "lat": "59.9494", "lon": "10.7564", "name": "Oslo", "country": "Norway", "cc": "NO", "sponsor": "Telenor Norge AS", "id": "3672", "host": "speedtest1.telenor.net:8080", "d": 6960.423039996613}, {"url": "http://osl.speedtest.as2116.net/speedtest/upload.php", "lat": "59.9494", "lon": "10.7564", "name": "Oslo", "country": "Norway", "cc": "NO", "sponsor": "Broadnet", "id": "11787", "host": "osl.speedtest.as2116.net:8080", "d": 6960.423039996613}, {"url": "http://speedtest.ign.as/speedtest/upload.php", "lat": "59.9494", "lon": "10.7564", "name": "Oslo", "country": "Norway", "cc": "NO", "sponsor": "Bulk Infrastructure AS", "id": "4179", "url2": "http://speedtest2.ign.as/speedtest/upload.php", "host": "speedtest.ign.as:8080", "d": 6960.423039996613}, {"url": "http://speedtesttest.get.no/upload.php", "lat": "59.9494", "lon": "10.7564", "name": "Oslo", "country": "Norway", "cc": "NO", "sponsor": "Get AS", "id": "14674", "host": "speedtesttest.get.no:8080", "d": 6960.423039996613}, {"url": "http://sp1.nextgentel.no/speedtest/upload.php", "lat": "59.9494", "lon": "10.7564", "name": "Oslo", "country": "Norway", "cc": "NO", "sponsor": "NextGenTel AS", "id": "8018", "url2": "http://sp2.nextgentel.no/speedtest/upload.php", "host": "speedtest.nextgentel.no:8080", "d": 6960.423039996613}, {"url": "http://speed1.blix.com/speedtest/upload.php", "lat": "59.9494", "lon": "10.7564", "name": "Oslo", "country": "Norway", "cc": "NO", "sponsor": "Blix Solutions AS", "id": "3378", "url2": "http://speed2.blix.com/speedtest/upload.php", "host": "speed1.blix.com:8080", "d": 6960.423039996613}, {"url": "http://osl-ulv-speedtest1.altibox.net/upload.php", "lat": "59.9494", "lon": "10.7564", "name": "Oslo", "country": "Norway", "cc": "NO", "sponsor": "Altibox AS", "id": "13544", "host": "osl-ulv-speedtest1.altibox.net:8080", "d": 6960.423039996613}], "6586.431788553311": [{"url": "http://sp.runnet.ru/speedtest/upload.php", "lat": "59.9343", "lon": "30.3351", "name": "Saint Petersburg", "country": "Russian Federation", "cc": "RU", "sponsor": "RUNNet", "id": "14633", "host": "sp.runnet.ru:8080", "d": 6586.431788553311}], "6586.337506255547": [{"url": "http://speedtest-szf.megafon.ru/speedtest/upload.php", "lat": "59.9333", "lon": "30.3333", "name": "Saint Petersburg", "country": "Russian Federation", "cc": "RU", "sponsor": "PJSC MegaFon", "id": "6385", "url2": "http://sp-szf.megafon.ru/speedtest/upload.php", "host": "speedtest-szf.megafon.ru:8080", "d": 6586.337506255547}, {"url": "http://sankt-peterburg2.speedtest.rt.ru/speedtest/upload.php", "lat": "59.9333", "lon": "30.3333", "name": "Saint Petersburg", "country": "Russian Federation", "cc": "RU", "sponsor": "Rostelecom", "id": "2599", "url2": "http://sankt-peterburg2.speedtest2.rt.ru/speedtest/upload.php", "host": "sankt-peterburg2.speedtest.rt.ru:8080", "d": 6586.337506255547}, {"url": "http://speedtest.forestnet.pro/speedtest/upload.php", "lat": "59.9333", "lon": "30.3333", "name": "Saint Petersburg", "country": "Russian Federation", "cc": "RU", "sponsor": "Forest Net", "id": "9644", "url2": "http://sp.forestnet.pro/speedtest/upload.php", "host": "speedtest.forestnet.pro:8080", "d": 6586.337506255547}, {"url": "http://sp2net1.airnet.ru/speedtest/upload.php", "lat": "59.9333", "lon": "30.3333", "name": "Saint Petersburg", "country": "Russian Federation", "cc": "RU", "sponsor": "AirNet", "id": "10299", "url2": "http://sp2net1.airnet.ru/speedtest1/upload.php", "host": "sp2net1.airnet.ru:8080", "d": 6586.337506255547}, {"url": "http://sp1.miran.ru/speedtest/upload.php", "lat": "59.9333", "lon": "30.3333", "name": "Saint Petersburg", "country": "Russian Federation", "cc": "RU", "sponsor": "Miran", "id": "10309", "url2": "http://sp2.miran.ru/speedtest/upload.php", "host": "speedtest.miran.ru:8080", "d": 6586.337506255547}, {"url": "http://speedtest.spb.gldn.net/speedtest/upload.php", "lat": "59.9333", "lon": "30.3333", "name": "Saint Petersburg", "country": "Russian Federation", "cc": "RU", "sponsor": "Vimpelcom ltd", "id": "4139", "url2": "http://speedtest-net.eltel.net/speedtest/upload.php", "host": "speedtest.spb.gldn.net:8080", "d": 6586.337506255547}, {"url": "http://speedtest.comfortel.pro/speedtest/upload.php", "lat": "59.9333", "lon": "30.3333", "name": "Saint Petersburg", "country": "Russian Federation", "cc": "RU", "sponsor": "Comfortel LLC.", "id": "5237", "url2": "http://speedtest1.comfortel.pro/speedtest/upload.php", "host": "speedtest.comfortel.pro:8080", "d": 6586.337506255547}, {"url": "http://speedtest.ptspb.net/speedtest/upload.php", "lat": "59.9333", "lon": "30.3333", "name": "Saint Petersburg", "country": "Russian Federation", "cc": "RU", "sponsor": "ITSP Prometey", "id": "4231", "url2": "http://speedtest1.ptspb.net/speedtest/upload.php", "host": "speedtest.ptspb.net:8080", "d": 6586.337506255547}, {"url": "http://vaz-2106.ru/test/upload.php", "lat": "59.9333", "lon": "30.3333", "name": "Saint Petersburg", "country": "Russian Federation", "cc": "RU", "sponsor": "M18", "id": "12776", "host": "vaz-2106.ru:8080", "d": 6586.337506255547}, {"url": "http://speedtest.obit.ru/speedtest/upload.php", "lat": "59.9333", "lon": "30.3333", "name": "Saint Petersburg", "country": "Russian Federation", "cc": "RU", "sponsor": "OBIT", "id": "14771", "host": "speedtest.obit.ru:8080", "d": 6586.337506255547}, {"url": "http://speedtest-it.spb.mts.ru/speedtest/upload.php", "lat": "59.9333", "lon": "30.3333", "name": "Saint Petersburg", "country": "Russian Federation", "cc": "RU", "sponsor": "MTS OJSC", "id": "4247", "url2": "http://217.66.147.194/speedtest/upload.php", "host": "speedtest-it.spb.mts.ru:8080", "d": 6586.337506255547}, {"url": "http://speedtest.pinspb.ru/upload.php", "lat": "59.9333", "lon": "30.3333", "name": "Saint Petersburg", "country": "Russian Federation", "cc": "RU", "sponsor": "PIN Co. Ltd.", "id": "15929", "host": "speedtest.pinspb.ru:8080", "d": 6586.337506255547}, {"url": "http://speedtest.spb.citytelecom.ru/speedtest/upload.php", "lat": "59.9333", "lon": "30.3333", "name": "Saint Petersburg", "country": "Russia", "cc": "RU", "sponsor": "CityTelecom", "id": "17310", "host": "speedtest.spb.citytelecom.ru:8080", "d": 6586.337506255547}, {"url": "http://speedtest.spb.ertelecom.ru/speedtest/upload.php", "lat": "59.9333", "lon": "30.3333", "name": "Saint Petersburg", "country": "Russian Federation", "cc": "RU", "sponsor": "DOM.RU", "id": "2690", "url2": "http://st.spb.ertelecom.ru/speedtest/upload.php", "host": "speedtest.spb.ertelecom.ru:8080", "d": 6586.337506255547}, {"url": "http://speedtest.smartspb.net/speedtest/upload.php", "lat": "59.9333", "lon": "30.3333", "name": "Saint Petersburg", "country": "Russian Federation", "cc": "RU", "sponsor": "Smart Telecom", "id": "6735", "url2": "http://speed.smartspb.net/speedtest/upload.php", "host": "speedtest.smartspb.net:8080", "d": 6586.337506255547}, {"url": "http://spb1.bigspeedtest.netbynet.ru/speedtest/upload.php", "lat": "59.9333", "lon": "30.3333", "name": "Saint Petersburg", "country": "Russian Federation", "cc": "RU", "sponsor": "Net By Net Holding LLC", "id": "11076", "host": "spb-speedtest-srv02.ti.ru:8080", "d": 6586.337506255547}, {"url": "http://stpetersburg1.speedtest.rascom.ru/upload.php", "lat": "59.9333", "lon": "30.3333", "name": "Saint Petersburg", "country": "Russian Federation", "cc": "RU", "sponsor": "CJSC RASCOM", "id": "5718", "url2": "http://stpetersburg2.speedtest.rascom.ru/speedtest/upload.php", "host": "stpetersburg1.speedtest.rascom.ru:8080", "d": 6586.337506255547}, {"url": "http://spb1.companion.tele2.ru/speedtest/upload.php", "lat": "59.9333", "lon": "30.3333", "name": "Saint Petersburg", "country": "Russian Federation", "cc": "RU", "sponsor": "Tele2 Russia", "id": "6051", "url2": "http://217.169.82.110/speedtest/upload.php", "host": "spb1.companion.tele2.ru:8080", "d": 6586.337506255547}, {"url": "http://speedtest.spb.wi-fi.ru/speedtest/upload.php", "lat": "59.9333", "lon": "30.3333", "name": "Saint Petersburg", "country": "Russian Federation", "cc": "RU", "sponsor": "MaximaTelecom SPB", "id": "12549", "host": "speedtest.spb.wi-fi.ru:8080", "d": 6586.337506255547}, {"url": "http://speed.bci-tele.com/speedtest/upload.php", "lat": "59.9333", "lon": "30.3333", "name": "Saint Petersburg", "country": "Russian Federation", "cc": "RU", "sponsor": "ISP BCI Telecom", "id": "4810", "url2": "http://speed2.bci-tele.com/speedtest/upload.php", "host": "speed.bci-tele.com:8080", "d": 6586.337506255547}, {"url": "http://speedtest.selectel.ru/speedtest/upload.php", "lat": "59.9333", "lon": "30.3333", "name": "Saint Petersburg", "country": "Russian Federation", "cc": "RU", "sponsor": "Selectel", "id": "16125", "host": "speedtest.selectel.ru:8080", "d": 6586.337506255547}, {"url": "http://speedtest.gblnet.ru/speedtest/upload.php", "lat": "59.9333", "lon": "30.3333", "name": "St. Petersburg", "country": "Russian Federation", "cc": "RU", "sponsor": "LLC Globalnet", "id": "15715", "host": "speedtest.gblnet.ru:8080", "d": 6586.337506255547}], "6569.335536749094": [{"url": "http://speedtest.vo47.ru/speedtest/upload.php", "lat": "59.9167", "lon": "32.3500", "name": "Volkhov", "country": "Russian Federation", "cc": "RU", "sponsor": "Volkhov-Online Ltd.", "id": "2086", "url2": "http://testspeed.vo47.ru/speedtest/upload.php", "host": "vo47.ru:8080", "d": 6569.335536749094}], "6575.423111291727": [{"url": "http://speedtest.link-spb.ru/speedtest/upload.php", "lat": "59.8833", "lon": "30.9865", "name": "Kirovsk", "country": "Russian Federation", "cc": "RU", "sponsor": "Link", "id": "3866", "url2": "http://speedtest2.link-spb.ru/speedtest/upload.php", "host": "speedtest.link-spb.ru:8080", "d": 6575.423111291727}, {"url": "http://sp1.webmax.su/speedtest/upload.php", "lat": "59.8833", "lon": "30.9865", "name": "Kirovsk", "country": "Russian Federation", "cc": "RU", "sponsor": "WebMAX ltd.", "id": "2193", "url2": "http://sp2.webmax.su/speedtest/upload.php", "host": "sp1.webmax.su:8080", "d": 6575.423111291727}], "6564.233052917468": [{"url": "https://lentel.ru/speedtest/upload.php", "lat": "59.7667", "lon": "30.7833", "name": "Otradnoe", "country": "Russia", "cc": "RU", "sponsor": "Lentel", "id": "4752", "host": "www.lentel.ru:8080", "d": 6564.233052917468}], "6563.934172653196": [{"url": "http://speed1.pushkinnet.com/speedtest/upload.php", "lat": "59.7333", "lon": "30.3833", "name": "Pushkin", "country": "Russian Federation", "cc": "RU", "sponsor": "PushkinNet", "id": "7770", "url2": "http://speed2.pushkinnet.com/speedtest/upload.php", "host": "speed1.pushkinnet.com:8080", "d": 6563.934172653196}, {"url": "http://speedtest.tinconet.ru/speedtest/upload.php", "lat": "59.7333", "lon": "30.3833", "name": "Pushkin", "country": "Russian Federation", "cc": "RU", "sponsor": "TincoNet", "id": "2376", "url2": "http://178.236.140.46/speedtest/upload.php", "host": "speedtest.tinconet.ru:8080", "d": 6563.934172653196}], "13221.064219729507": [{"url": "http://sp1.spitwspots.com/speedtest/upload.php", "lat": "59.6431", "lon": "-151.5258", "name": "Homer, AK", "country": "United States", "cc": "US", "sponsor": "SPITwSPOTS", "id": "7683", "url2": "http://sp2.spitwspots.com/upload.php", "host": "sp1.spitwspots.com:8080", "d": 13221.064219729507}], "6547.847522062663": [{"url": "http://speedtest.gtn.ru/speedtest/upload.php", "lat": "59.5667", "lon": "30.1333", "name": "Gatchina", "country": "Russian Federation", "cc": "RU", "sponsor": "AstraOreol ISP", "id": "7358", "url2": "http://speedtest2.gtn.ru/speedtest/upload.php", "host": "speedtest.gtn.ru:8080", "d": 6547.847522062663}, {"url": "http://speedtest.gatchina.ru/speedtest/upload.php", "lat": "59.5667", "lon": "30.1333", "name": "Gatchina", "country": "Russian Federation", "cc": "RU", "sponsor": "Gatchina-Online", "id": "2113", "url2": "http://speedtest2.gatchina.ru/speedtest/upload.php", "host": "speedtest.gatchina.ru:8080", "d": 6547.847522062663}], "11168.462040229595": [{"url": "http://magadan.speedtest.rt.ru/speedtest/upload.php", "lat": "59.5667", "lon": "150.8000", "name": "Magadan", "country": "Russian Federation", "cc": "RU", "sponsor": "Rostelecom", "id": "3125", "url2": "http://magadan.speedtest2.rt.ru/speedtest/upload.php", "host": "magadan.speedtest.rt.ru:8080", "d": 11168.462040229595}, {"url": "http://mgd.speedtest-dvf.megafon.ru/speedtest/upload.php", "lat": "59.5667", "lon": "150.8000", "name": "Magadan", "country": "Russian Federation", "cc": "RU", "sponsor": "MegaFon", "id": "5641", "url2": "http://mgd.sp-dvf.megafon.ru/speedtest/upload.php", "host": "mgd.speedtest-dvf.megafon.ru:8080", "d": 11168.462040229595}, {"url": "http://speedtest-mag.mtsdv.ru/speedtest/upload.php", "lat": "59.5667", "lon": "150.8000", "name": "Magadan", "country": "Russian Federation", "cc": "RU", "sponsor": "MTS Magadan", "id": "11146", "host": "speedtest-mag.mtsdv.ru:8080", "d": 11168.462040229595}, {"url": "http://speedtest.arbuz.ru/speedtest/upload.php", "lat": "59.5667", "lon": "150.8000", "name": "Magadan", "country": "Russian Federation", "cc": "RU", "sponsor": "ISP ARBUZ", "id": "4993", "url2": "http://speedtest.arbuz.ru/speedtest/upload.php", "host": "89.28.248.80:8080", "d": 11168.462040229595}, {"url": "http://telemagadan.ru/speed/speedtest/upload.php", "lat": "59.5667", "lon": "150.8000", "name": "Magadan", "country": "Russian Federation", "cc": "RU", "sponsor": "DVTK LLC", "id": "10243", "url2": "http://www.telemagadan.ru/speed/speedtest/upload.php", "host": "speed-test.telemagadan.ru:8080", "d": 11168.462040229595}], "6520.136404648223": [{"url": "http://speed.kirishi.ru/speedtest/upload.php", "lat": "59.4500", "lon": "32.0000", "name": "Kirishi", "country": "Russian Federation", "cc": "RU", "sponsor": "OOO TK TOR", "id": "2071", "host": "speed.kirishi.ru:8080", "d": 6520.136404648223}], "6598.204009005519": [{"url": "http://sidur.tele2.ee/speedtest/upload.php", "lat": "59.4339", "lon": "24.7549", "name": "Tallinn", "country": "Estonia", "cc": "EE", "sponsor": "Tele2 Eesti", "id": "3606", "url2": "http://pidur.tele2.ee/speedtest/upload.php", "host": "sidur.tele2.ee:8080", "d": 6598.204009005519}, {"url": "http://speedtest1.starman.ee/speedtest/upload.php", "lat": "59.4339", "lon": "24.7549", "name": "Tallinn", "country": "Estonia", "cc": "EE", "sponsor": "Starman AS", "id": "3979", "url2": "http://speedtest2.starman.ee/speedtest/upload.php", "host": "62.65.245.124:80", "d": 6598.204009005519}, {"url": "http://kiirustest.telia.ee/speedtest/upload.php", "lat": "59.4339", "lon": "24.7549", "name": "Tallinn", "country": "Estonia", "cc": "EE", "sponsor": "Telia Eesti AS", "id": "8168", "url2": "http://kiirusetest.telia.ee/speedtest/upload.php", "host": "kiirustest.telia.ee:8080", "d": 6598.204009005519}, {"url": "http://speed.fiber.ee/speedtest/upload.php", "lat": "59.4339", "lon": "24.7549", "name": "Tallinn", "country": "Estonia", "cc": "EE", "sponsor": "Compic OU", "id": "3207", "url2": "http://speed2.fiber.ee/speedtest/upload.php", "host": "speed.fiber.ee:8080", "d": 6598.204009005519}, {"url": "http://speedtest1.telset.ee/speedtest/upload.php", "lat": "59.4339", "lon": "24.7549", "name": "Tallinn", "country": "Estonia", "cc": "EE", "sponsor": "Telset AS", "id": "5654", "url2": "http://speedtest2.telset.ee/speedtest/upload.php", "host": "speedtest1.telset.ee:8080", "d": 6598.204009005519}, {"url": "http://speedtest.elisa.ee/speedtest/upload.php", "lat": "59.4339", "lon": "24.7549", "name": "Tallinn", "country": "Estonia", "cc": "EE", "sponsor": "Elisa", "id": "2610", "url2": "http://speedtest.manonet.ee/speedtest/upload.php", "host": "speedtest.elisa.ee:8080", "d": 6598.204009005519}], "6722.318887819753": [{"url": "http://kst5-speedtest-1.tele2.net/speedtest/upload.php", "lat": "59.4014", "lon": "17.9444", "name": "Kista", "country": "Sweden", "cc": "SE", "sponsor": "Tele2", "id": "6061", "url2": "http://kst5-speedtest-1.tele2.net/upload.php", "host": "kst5-speedtest-1.tele2.net:8080", "d": 6722.318887819753}], "6547.213125038317": [{"url": "http://speedtest.fairyhosting.com/speedtest/upload.php", "lat": "59.3797", "lon": "28.1791", "name": "Narva", "country": "Estonia", "cc": "EE", "sponsor": "FairyHosting.com", "id": "12456", "host": "speedtest.fairyhosting.com:8080", "d": 6547.213125038317}], "6828.991894436344": [{"url": "http://speedtest.ninetech.se/speedtest/upload.aspx", "lat": "59.3783", "lon": "13.5042", "name": "Karlstad", "country": "Sweden", "cc": "SE", "sponsor": "Ninetech AB", "id": "5338", "url2": "http://speedtest.ninetech.com/speedtest/upload.aspx", "host": "speedtest.ninetech.se:8080", "d": 6828.991894436344}], "6540.964631434835": [{"url": "http://speedtest.ruslantk.ru/speedtest/upload.php", "lat": "59.3667", "lon": "28.6167", "name": "Kingisepp", "country": "Russian Federation", "cc": "RU", "sponsor": "OOO Ruslantk", "id": "7458", "url2": "http://speedtest2.ruslantk.ru/speedtest/upload.php", "host": "speedtest.ruslantk.ru:8080", "d": 6540.964631434835}, {"url": "http://sp1.king-online.ru/speedtest/upload.php", "lat": "59.3667", "lon": "28.6167", "name": "Kingisepp", "country": "Russia", "cc": "RU", "sponsor": "King-Online Ltd.", "id": "4494", "url2": "http://sp2.king-online.ru/speedtest/upload.php", "host": "sp1.king-online.ru:8080", "d": 6540.964631434835}], "6712.190911088841": [{"url": "http://s1.sto.speedtest.interoute.net/speedtest/upload.php", "lat": "59.3294", "lon": "18.0686", "name": "Stockholm", "country": "Sweden", "cc": "SE", "sponsor": "Interoute VDC", "id": "10256", "url2": "http://s2.sto.speedtest.interoute.net/speedtest/upload.php", "host": "sto.speedtest.interoute.net:8080", "d": 6712.190911088841}, {"url": "http://speedtest1.dchosting.se/speedtest/upload.php", "lat": "59.3294", "lon": "18.0686", "name": "Stockholm", "country": "Sweden", "cc": "SE", "sponsor": "Datacom", "id": "8424", "url2": "http://speedtest2.dchosting.se/speedtest/upload.php", "host": "speedtest1.dchosting.se:8080", "d": 6712.190911088841}, {"url": "http://se.altushost.com/speedtest/upload.php", "lat": "59.3294", "lon": "18.0686", "name": "Stockholm", "country": "Sweden", "cc": "SE", "sponsor": "AltusHost B.V.", "id": "5235", "url2": "http://se.altushost.net/speedtest/upload.php", "host": "se.altushost.com:8080", "d": 6712.190911088841}, {"url": "http://speedtest.spacedump.net/speedtest/upload.php", "lat": "59.3294", "lon": "18.0686", "name": "Stockholm", "country": "Sweden", "cc": "SE", "sponsor": "SpaceDump IT AB", "id": "2229", "url2": "http://speedtest2.spacedump.net/speedtest/upload.php", "host": "212.63.211.90:8080", "d": 6712.190911088841}], "6712.18290647002": [{"url": "http://speedtest.nordu.net/speedtest/upload.php", "lat": "59.3293", "lon": "18.0685", "name": "Stockholm", "country": "Sweden", "cc": "SE", "sponsor": "NORDUnet A/S", "id": "14200", "host": "speedtest.nordu.net:8080", "d": 6712.18290647002}], "6475.510024921719": [{"url": "http://vologda.speedtest.rt.ru/speedtest/upload.php", "lat": "59.2167", "lon": "39.9000", "name": "Vologda", "country": "Russian Federation", "cc": "RU", "sponsor": "Rostelecom", "id": "2596", "url2": "http://vologda.speedtest2.rt.ru/speedtest/upload.php", "host": "vologda.speedtest.rt.ru:8080", "d": 6475.510024921719}, {"url": "http://speedtest.visp.ru/speedtest/upload.php", "lat": "59.2167", "lon": "39.9000", "name": "Vologda", "country": "Russian Federation", "cc": "RU", "sponsor": "Navigator", "id": "13924", "host": "speedtest.visp.ru:8080", "d": 6475.510024921719}], "7028.294606460196": [{"url": "http://speedometer-st3.snartibox.no/upload.php", "lat": "58.9700", "lon": "5.7331", "name": "Stavanger", "country": "Norway", "cc": "NO", "sponsor": "Altibox AS", "id": "14491", "host": "speedometer-st3.snartibox.no:8080", "d": 7028.294606460196}], "7028.184407844063": [{"url": "http://spnet1.xfiber.com/speedtest/upload.php", "lat": "58.9633", "lon": "5.7189", "name": "Stavanger", "country": "Norway", "cc": "NO", "sponsor": "XFIBER AS", "id": "7470", "url2": "http://spnet2.xfiber.com/speedtest/upload.php", "host": "spnet1.xfiber.com:8080", "d": 7028.184407844063}, {"url": "http://stv-gm-speedtest1.altibox.net/upload.php", "lat": "58.9633", "lon": "5.7189", "name": "Stavanger", "country": "Norway", "cc": "NO", "sponsor": "Altibox AS", "id": "13094", "host": "stv-gm-speedtest1.altibox.net:8080", "d": 7028.184407844063}], "6420.167817442946": [{"url": "http://st2.sv-tel.ru/speedtest/upload.php", "lat": "58.7302", "lon": "36.7966", "name": "Kstovo", "country": "Russian Federation", "cc": "RU", "sponsor": "\u0421\u0432\u044f\u0437\u0438\u0441\u0442", "id": "14189", "host": "st2.sv-tel.ru:8080", "d": 6420.167817442946}], "6684.482484483765": [{"url": "http://sp1.kch.interra.ru/speedtest/upload.php", "lat": "58.6979", "lon": "59.4929", "name": "Kachkanar", "country": "Russian Federation", "cc": "RU", "sponsor": "Interra Ltd", "id": "11085", "host": "sp1.kch.interra.ru:8080", "d": 6684.482484483765}], "6485.481859808869": [{"url": "http://kirov.speedtest.rt.ru/speedtest/upload.php", "lat": "58.6000", "lon": "49.6500", "name": "Kirov", "country": "Russian Federation", "cc": "RU", "sponsor": "Rostelecom", "id": "3508", "url2": "http://kirov.speedtest2.rt.ru/speedtest/upload.php", "host": "kirov.speedtest.rt.ru:8080", "d": 6485.481859808869}, {"url": "http://speedtest.kirov.ertelecom.ru/speedtest/upload.php", "lat": "58.6000", "lon": "49.6500", "name": "Kirov", "country": "Russian Federation", "cc": "RU", "sponsor": "DOM.RU", "id": "2702", "url2": "http://st.kirov.ertelecom.ru/speedtest/upload.php", "host": "speedtest.kirov.ertelecom.ru:8080", "d": 6485.481859808869}, {"url": "http://speedtest1.kirov.beeline.ru/speedtest/upload.php", "lat": "58.6000", "lon": "49.6500", "name": "Kirov", "country": "Russian Federation", "cc": "RU", "sponsor": "Beeline", "id": "6573", "url2": "http://speedtest2.kirov.beeline.ru/speedtest/upload.php", "host": "speedtest1.kirov.beeline.ru:8080", "d": 6485.481859808869}, {"url": "http://kirov.speedtest-uf.megafon.ru/speedtest/upload.php", "lat": "58.6000", "lon": "49.6500", "name": "Kirov", "country": "Russia", "cc": "RU", "sponsor": "MegaFon", "id": "17041", "host": "kirov.speedtest-uf.megafon.ru:8080", "d": 6485.481859808869}], "6418.607419758704": [{"url": "http://kostroma.speedtest.rt.ru/speedtest/upload.php", "lat": "58.5500", "lon": "43.6830", "name": "Kostroma", "country": "Russian Federation", "cc": "RU", "sponsor": "Rostelecom", "id": "3261", "url2": "http://kostroma.speedtest2.rt.ru/speedtest/upload.php", "host": "kostroma.speedtest.rt.ru:8080", "d": 6418.607419758704}, {"url": "http://st1.kostroma.net/speedtest/upload.php", "lat": "58.5500", "lon": "43.6830", "name": "Kostroma", "country": "Russian Federation", "cc": "RU", "sponsor": "Kostroma Municipal Telephone Network", "id": "6565", "url2": "http://st2.kostroma.net/speedtest/upload.php", "host": "st1.kostroma.net:8080", "d": 6418.607419758704}], "6424.557851851874": [{"url": "http://velikynovgorod.speedtest.rt.ru/speedtest/upload.php", "lat": "58.5333", "lon": "31.2667", "name": "Veliky Novgorod", "country": "Russian Federation", "cc": "RU", "sponsor": "Rostelecom", "id": "3540", "url2": "http://velikynovgorod.speedtest2.rt.ru/speedtest/upload.php", "host": "velikynovgorod.speedtest.rt.ru:8080", "d": 6424.557851851874}], "13375.970005083018": [{"url": "http://speedtest.aptalaska.net/speedtest/upload.php", "lat": "58.3833", "lon": "-134.1833", "name": "Juneau, AK", "country": "United States", "cc": "US", "sponsor": "Alaska Power and Telephone", "id": "10367", "url2": "http://speedtest2.aptalaska.net/speedtest/upload.php", "host": "speedtest.aptalaska.net:8080", "d": 13375.970005083018}, {"url": "http://speedtest.thesnowcloud.com/speedtest/upload.php", "lat": "58.3833", "lon": "-134.1833", "name": "Juneau, AK", "country": "United States", "cc": "US", "sponsor": "TheSnowCloud", "id": "4841", "host": "speedtest.thesnowcloud.com:8080", "d": 13375.970005083018}], "6890.355617770635": [{"url": "http://tobolsk.speedtest-uf.megafon.ru/speedtest/upload.php", "lat": "58.1953", "lon": "68.2581", "name": "Tobolsk", "country": "Russia", "cc": "RU", "sponsor": "MegaFon", "id": "17035", "host": "tobolsk.speedtest-uf.megafon.ru:8080", "d": 6890.355617770635}], "6482.557137849016": [{"url": "http://speedtest.newit-lan.ru/speedtest/upload.php", "lat": "58.1333", "lon": "52.6667", "name": "Glazov", "country": "Russian Federation", "cc": "RU", "sponsor": "NewIT", "id": "15393", "host": "speedtest.newit-lan.ru:8080", "d": 6482.557137849016}, {"url": "http://speedtest.glazov.net/upload.php", "lat": "58.1333", "lon": "52.6667", "name": "Glazov", "country": "Russian Federation", "cc": "RU", "sponsor": "GlazovNet", "id": "8635", "url2": "http://speedtest2.glazov.net/upload.php", "host": "speedtest.glazov.net:8080", "d": 6482.557137849016}, {"url": "http://speed.garant.tv/speedtest/upload.php", "lat": "58.1333", "lon": "52.6667", "name": "Glazov", "country": "Russian Federation", "cc": "RU", "sponsor": "Garant-Glazov", "id": "5225", "url2": "http://speed.glazov-garant.ru/speedtest/upload.php", "host": "speed.garant.tv:8080", "d": 6482.557137849016}], "6583.6428677524345": [{"url": "http://speedtest.kvartal.tv/speedtest/upload.php", "lat": "58.1003", "lon": "57.8042", "name": "Lysva", "country": "Russian Federation", "cc": "RU", "sponsor": "KVARTAL.TV", "id": "5473", "url2": "http://speedtest2.kvartal.tv/speedtest/upload.php", "host": "speedtest.kvartal.tv:8080", "d": 6583.6428677524345}], "6541.989985741277": [{"url": "http://sptc.ddns.net/upload.php", "lat": "58.0297", "lon": "56.2668", "name": "Perm", "country": "Russian Federation", "cc": "RU", "sponsor": "OJC PTK", "id": "15108", "host": "sptc.ddns.net:8080", "d": 6541.989985741277}, {"url": "http://perm.speedtest-uf.megafon.ru/speedtest/upload.php", "lat": "58.0297", "lon": "56.2668", "name": "Perm", "country": "Russia", "cc": "RU", "sponsor": "MegaFon", "id": "17039", "host": "perm.speedtest-uf.megafon.ru:8080", "d": 6541.989985741277}], "6539.99563998465": [{"url": "http://perm.speedtest.rt.ru/speedtest/upload.php", "lat": "58.0000", "lon": "56.3167", "name": "Perm", "country": "Russian Federation", "cc": "RU", "sponsor": "Rostelecom", "id": "5220", "url2": "http://perm.speedtest2.rt.ru/speedtest/upload.php", "host": "perm.speedtest.rt.ru:8080", "d": 6539.99563998465}, {"url": "http://speedtest.perm.ertelecom.ru/speedtest/upload.php", "lat": "58.0000", "lon": "56.3167", "name": "Perm", "country": "Russian Federation", "cc": "RU", "sponsor": "DOM.RU", "id": "2660", "url2": "http://st.perm.ertelecom.ru/speedtest/upload.php", "host": "speedtest.perm.ertelecom.ru:8080", "d": 6539.99563998465}, {"url": "http://parmail.ru/speedtest/upload.php", "lat": "58.0000", "lon": "56.3167", "name": "Perm", "country": "Russian Federation", "cc": "RU", "sponsor": "INNOR", "id": "6021", "url2": "http://relay.parmail.ru/speedtest/upload.php", "host": "parmail.ru:8080", "d": 6539.99563998465}], "8453.521974741669": [{"url": "http://speedtest.ilim-telecom.ru/upload.php", "lat": "58.0000", "lon": "102.6667", "name": "Ust-Ilimsk", "country": "Russian Federation", "cc": "RU", "sponsor": "Ilim-Telecom", "id": "10648", "url2": "http://speedtest2.ilim-telecom.ru/upload.php", "host": "speedtest.ilim-telecom.ru:8080", "d": 8453.521974741669}, {"url": "http://speedtest.ilimnet.ru/speedtest/upload.php", "lat": "58.0000", "lon": "102.6667", "name": "Ust-ilimsk", "country": "Russian Federation", "cc": "RU", "sponsor": "Telnet Ltd", "id": "11050", "host": "speedtest.ilimnet.ru:8080", "d": 8453.521974741669}, {"url": "http://speed.ksilim.ru/upload.php", "lat": "58.0000", "lon": "102.6667", "name": "Ust-ilimsk", "country": "Russian Federation", "cc": "RU", "sponsor": "Kabelnye_seti", "id": "3333", "host": "speed.ksilim.ru:8080", "d": 8453.521974741669}], "6512.56017522295": [{"url": "http://nytvahosting.ru/upload.php", "lat": "57.9332", "lon": "55.3467", "name": "Nytva", "country": "Russian Federation", "cc": "RU", "sponsor": "NEXT-TELECOM LTD", "id": "16055", "host": "nytvahosting.ru:8080", "d": 6512.56017522295}], "6618.70272418927": [{"url": "http://speedtest.setitagila.ru/upload.php", "lat": "57.9215", "lon": "59.9816", "name": "Nizhniy Tagil", "country": "Russian Federation", "cc": "RU", "sponsor": "Seti Tagila", "id": "15096", "host": "speedtest.setitagila.ru:8080", "d": 6618.70272418927}, {"url": "http://nizhniy-tagil.speedtest-uf.megafon.ru/speedtest/upload.php", "lat": "57.9215", "lon": "59.9816", "name": "Nizhny Tagil", "country": "Russia", "cc": "RU", "sponsor": "MegaFon", "id": "17038", "host": "nizhniy-tagil.speedtest-uf.megafon.ru:8080", "d": 6618.70272418927}], "6334.734599658489": [{"url": "http://bologoe1.speedtest.rascom.ru/speedtest/upload.php", "lat": "57.8833", "lon": "34.0500", "name": "Bologoe", "country": "Russian Federation", "cc": "RU", "sponsor": "CJSC RASCOM", "id": "5702", "url2": "http://bologoe2.speedtest.rascom.ru/speedtest/upload.php", "host": "bologoe1.speedtest.rascom.ru:8080", "d": 6334.734599658489}], "6375.121940808192": [{"url": "http://pskov.speedtest.rt.ru/speedtest/upload.php", "lat": "57.8167", "lon": "28.3333", "name": "Pskov", "country": "Russian Federation", "cc": "RU", "sponsor": "Rostelecom", "id": "3526", "url2": "http://pskov.speedtest2.rt.ru/speedtest/upload.php", "host": "pskov.speedtest.rt.ru:8080", "d": 6375.121940808192}, {"url": "http://www.pskovline.ru/speedtest/speedtest/upload.php", "lat": "57.8167", "lon": "28.3333", "name": "Pskov", "country": "Russian Federation", "cc": "RU", "sponsor": "Pskovline LTD", "id": "1210", "host": "www.pskovline.ru:8080", "d": 6375.121940808192}, {"url": "http://psk1.bigspeedtest.netbynet.ru/speedtest/upload.php", "lat": "57.8167", "lon": "28.3333", "name": "Pskov", "country": "Russian Federation", "cc": "RU", "sponsor": "Net By Net Holding LLC", "id": "11075", "host": "psk-speedtest-srv02.ti.ru:8080", "d": 6375.121940808192}], "6297.619208130284": [{"url": "http://yaroslavl.speedtest.rt.ru/speedtest/upload.php", "lat": "57.6167", "lon": "39.8500", "name": "Yaroslavl", "country": "Russian Federation", "cc": "RU", "sponsor": "Rostelecom", "id": "2620", "url2": "http://yaroslavl.speedtest2.rt.ru/speedtest/upload.php", "host": "yaroslavl.speedtest.rt.ru:8080", "d": 6297.619208130284}, {"url": "http://speedtest.yar.ertelecom.ru/speedtest/upload.php", "lat": "57.6167", "lon": "39.8500", "name": "Yaroslavl", "country": "Russian Federation", "cc": "RU", "sponsor": "JSC \"ER-Telecom Holding\"", "id": "2666", "url2": "http://st.yar.ertelecom.ru/speedtest/upload.php", "host": "speedtest.yar.ertelecom.ru:8080", "d": 6297.619208130284}, {"url": "http://zavolga.net/mini/speedtest/upload.php", "lat": "57.6167", "lon": "39.8500", "name": "Yaroslavl", "country": "Russian Federation", "cc": "RU", "sponsor": "Zavolga.Net", "id": "4692", "url2": "http://yar-ix.net/mini/speedtest/upload.php", "host": "zavolga.net:8080", "d": 6297.619208130284}, {"url": "http://sp1.netis.ru/upload.php", "lat": "57.6167", "lon": "39.8500", "name": "Yaroslavl", "country": "Russian Federation", "cc": "RU", "sponsor": "NETIS Telecom", "id": "9984", "url2": "http://sp2.netis.ru/upload.php", "host": "sp1.netis.ru:8080", "d": 6297.619208130284}, {"url": "http://st1.yar-tt.ru/speedtest/upload.php", "lat": "57.6167", "lon": "39.8500", "name": "Yaroslavl", "country": "Russian Federation", "cc": "RU", "sponsor": "CJSC YarTranzitTelecom", "id": "2772", "url2": "http://st2.yar-tt.ru/speedtest/upload.php", "host": "st1.yar-tt.ru:8080", "d": 6297.619208130284}, {"url": "http://speedtest1.ttksever.ru/speedtest/upload.php", "lat": "57.6167", "lon": "39.8500", "name": "Yaroslavl", "country": "Russian Federation", "cc": "RU", "sponsor": "CJSC TransTeleCom", "id": "3088", "url2": "http://speedtest.ttksever.ru/speedtest/upload.php", "host": "speedtest1.ttksever.ru:8080", "d": 6297.619208130284}, {"url": "http://st.atel76.ru/speedtest/upload.php", "lat": "57.6167", "lon": "39.8500", "name": "Yaroslavl", "country": "Russian Federation", "cc": "RU", "sponsor": "Volga IX", "id": "10230", "url2": "http://st2.atel76.ru/speedtest/upload.php", "host": "st.atel76.ru:8080", "d": 6297.619208130284}, {"url": "http://speed.livecomm.net/speedtest/upload.php", "lat": "57.6167", "lon": "39.8500", "name": "Yaroslavl", "country": "Russian Federation", "cc": "RU", "sponsor": "LiveComm", "id": "4674", "url2": "http://speed.livecomm.ru/speedtest/upload.php", "host": "speed.livecomm.net:8080", "d": 6297.619208130284}], "6761.340810182266": [{"url": "http://speedtest.nygreenit.net/speedtest/upload.php", "lat": "57.5833", "lon": "9.9500", "name": "Hirtshals", "country": "Denmark", "cc": "DK", "sponsor": "Nygreen IT ApS", "id": "5294", "url2": "http://speedtest.nygreenit.com/speedtest/upload.php", "host": "speedtest.nygreenit.net:8080", "d": 6761.340810182266}], "6436.865205888371": [{"url": "http://test1.ilink.lv/speedtest/upload.php", "lat": "57.3833", "lon": "21.5500", "name": "Ventspils", "country": "Latvia", "cc": "LV", "sponsor": "iLink", "id": "4173", "url2": "http://test2.ilink.lv/speedtest/upload.php", "host": "test1.ilink.lv:8080", "d": 6436.865205888371}], "7179.674138014679": [{"url": "http://speedtest1.converged.co.uk/upload.php", "lat": "57.1526", "lon": "-2.1100", "name": "Aberdeen", "country": "Great Britain", "cc": "GB", "sponsor": "Converged Communication Solutions Limited", "id": "9171", "url2": "http://speedtest2.converged.co.uk/upload.php", "host": "speedtest1.converged.co.uk:8080", "d": 7179.674138014679}], "6704.059532660751": [{"url": "http://sp.pozitivtelecom.ru/speedtest/upload.php", "lat": "57.1500", "lon": "65.5333", "name": "Tyumen", "country": "Russian Federation", "cc": "RU", "sponsor": "OOO Pozitiv Telecom", "id": "9322", "url2": "http://sp1.pozitivtelecom.ru/speedtest/upload.php", "host": "sp.pozitivtelecom.ru:8080", "d": 6704.059532660751}, {"url": "http://tumen.speedtest.rt.ru/speedtest/upload.php", "lat": "57.1500", "lon": "65.5333", "name": "Tyumen", "country": "Russian Federation", "cc": "RU", "sponsor": "Rostelecom", "id": "5769", "url2": "http://tumen.speedtest2.rt.ru/speedtest/upload.php", "host": "tumen.speedtest.rt.ru:8080", "d": 6704.059532660751}, {"url": "http://speedtest.tmn.ertelecom.ru/speedtest/upload.php", "lat": "57.1500", "lon": "65.5333", "name": "Tyumen", "country": "Russian Federation", "cc": "RU", "sponsor": "DOM.RU", "id": "2697", "url2": "http://st.tmn.ertelecom.ru/speedtest/upload.php", "host": "speedtest.tmn.ertelecom.ru:8080", "d": 6704.059532660751}, {"url": "http://speedtest.tm.metro-set.ru/speedtest/upload.php", "lat": "57.1500", "lon": "65.5333", "name": "Tyumen", "country": "Russian Federation", "cc": "RU", "sponsor": "Metroset", "id": "10870", "url2": "http://speedtest2.tm.metro-set.ru/speedtest/upload.php", "host": "speedtest.tm.metro-set.ru:8080", "d": 6704.059532660751}, {"url": "http://speedtest.oborona.net/speedtest/upload.php", "lat": "57.1500", "lon": "65.5333", "name": "Tyumen", "country": "Russian Federation", "cc": "RU", "sponsor": "Delta Telesystems", "id": "988", "host": "speedtest.oborona.net:8080", "d": 6704.059532660751}, {"url": "http://speedtest4.proxi-com.ru/upload.php", "lat": "57.1500", "lon": "65.5333", "name": "Tyumen", "country": "Russian Federation", "cc": "RU", "sponsor": "Proxicom Limited Company", "id": "7594", "url2": "http://speedtest5.proxi-com.ru/upload.php", "host": "speedtest4.proxi-com.ru:8080", "d": 6704.059532660751}, {"url": "http://sp1.23-net.ru/speedtest/upload.php", "lat": "57.1500", "lon": "65.5333", "name": "Tyumen", "country": "Russian Federation", "cc": "RU", "sponsor": "23-NET", "id": "9598", "url2": "http://sp2.23-net.ru/speedtest/upload.php", "host": "sp1.23-net.ru:8080", "d": 6704.059532660751}, {"url": "http://tumen.speedtest-uf.megafon.ru/speedtest/upload.php", "lat": "57.1500", "lon": "65.5333", "name": "Tyumen", "country": "Russia", "cc": "RU", "sponsor": "MegaFon", "id": "17034", "host": "tumen.speedtest-uf.megafon.ru:8080", "d": 6704.059532660751}], "6646.209716824433": [{"url": "http://sp1.mediateknik.net/speedtest/upload.php", "lat": "57.1167", "lon": "12.2167", "name": "Varberg", "country": "Sweden", "cc": "SE", "sponsor": "Mediateknik", "id": "6648", "url2": "http://sp2.mediateknik.net/speedtest/upload.php", "host": "sp1.mediateknik.net:8080", "d": 6646.209716824433}], "6712.235339230083": [{"url": "http://speedtest.telenor.dk/speedtest/upload.aspx", "lat": "57.0488", "lon": "9.9217", "name": "Aalborg", "country": "Denmark", "cc": "DK", "sponsor": "Telenor A/S", "id": "11530", "host": "speedtest.telenor.dk:8080", "d": 6712.235339230083}], "6567.072757012373": [{"url": "http://st.intersat.ru/speedtest/upload.php", "lat": "57.0000", "lon": "61.4667", "name": "Asbest", "country": "Russia", "cc": "RU", "sponsor": "Intersat Ltd.", "id": "5183", "url2": "http://st2.intersat.ru/speedtest/upload.php", "host": "st.intersat.ru:8080", "d": 6567.072757012373}], "6232.214133544133": [{"url": "http://speedtest1.ivanovo.comstar-r.ru/speedtest/upload.php", "lat": "56.9967", "lon": "40.9819", "name": "Ivanovo", "country": "Russian Federation", "cc": "RU", "sponsor": "MTS", "id": "5038", "url2": "http://speedtest2.ivanovo.comstar-r.ru/speedtest/upload.php", "host": "speedtest1.ivanovo.comstar-r.ru:8080", "d": 6232.214133544133}, {"url": "http://ivanovo.speedtest.rt.ru/speedtest/upload.php", "lat": "56.9967", "lon": "40.9819", "name": "Ivanovo", "country": "Russian Federation", "cc": "RU", "sponsor": "Rostelecom", "id": "3481", "url2": "http://ivanovo.speedtest2.rt.ru/speedtest/upload.php", "host": "ivanovo.speedtest.rt.ru:8080", "d": 6232.214133544133}, {"url": "http://speedtest1.cyberivanovo.ru/speedtest/upload.php", "lat": "56.9967", "lon": "40.9819", "name": "Ivanovo", "country": "Russia", "cc": "RU", "sponsor": "Cyberivanovo.ru", "id": "5014", "url2": "http://speedtest2.cyberivanovo.ru/speedtest/upload.php", "host": "speedtest1.cyberivanovo.ru:8080", "d": 6232.214133544133}, {"url": "http://st.345000.ru/speedtest/upload.php", "lat": "56.9967", "lon": "40.9819", "name": "Ivanovo", "country": "Russian Federation", "cc": "RU", "sponsor": "MTT Connect", "id": "9945", "url2": "http://st.tvoynet.ru/speedtest/upload.php", "host": "st.345000.ru:8080", "d": 6232.214133544133}, {"url": "http://test.ivn.ttksever.ru/speedtest/upload.php", "lat": "56.9967", "lon": "40.9819", "name": "Ivanovo", "country": "Russian Federation", "cc": "RU", "sponsor": "TTK", "id": "16483", "host": "test.ivn.ttksever.ru:8080", "d": 6232.214133544133}], "6343.245171543436": [{"url": "http://speedtest.lmt.lv/speedtest/upload.php", "lat": "56.9496", "lon": "24.1040", "name": "Riga", "country": "Latvia", "cc": "LV", "sponsor": "Latvijas Mobilais Telefons", "id": "2148", "url2": "http://speedtest2.lmt.lv/speedtest/upload.php", "host": "speedtest.lmt.lv:8080", "d": 6343.245171543436}, {"url": "http://mini1.speedtest.lv/speedtest/upload.php", "lat": "56.9496", "lon": "24.1040", "name": "Riga", "country": "Latvia", "cc": "LV", "sponsor": "Lattelecom", "id": "1268", "url2": "http://mini2.speedtest.lv/speedtest/upload.php", "host": "mini1.speedtest.lv:8080", "d": 6343.245171543436}, {"url": "http://speedtest1.srnet.lv/speedtest/upload.php", "lat": "56.9496", "lon": "24.1040", "name": "Riga", "country": "Latvia", "cc": "LV", "sponsor": "SIA Stream Networks", "id": "2151", "url2": "http://speedtest2.srnet.lv/speedtest/upload.php", "host": "speedtest1.srnet.lv:8080", "d": 6343.245171543436}, {"url": "http://speedtest.bite.lv/speedtest/upload.php", "lat": "56.9496", "lon": "24.1040", "name": "Riga", "country": "Latvia", "cc": "LV", "sponsor": "SIA Bite Latvija", "id": "5834", "url2": "http://speedtest2.bite.lv/speedtest/upload.php", "host": "speedtest.bite.lv:8080", "d": 6343.245171543436}, {"url": "http://www.ping.lv/speedtest/upload.php", "lat": "56.9496", "lon": "24.1040", "name": "Riga", "country": "Latvia", "cc": "LV", "sponsor": "AS Balticom", "id": "1348", "url2": "http://speedtest.ping.lv/speedtest/upload.php", "host": "ping.lv:8080", "d": 6343.245171543436}, {"url": "http://speedtest1-rix.btv.lv/upload.php", "lat": "56.9496", "lon": "24.1040", "name": "Riga", "country": "Latvia", "cc": "LV", "sponsor": "BALTCOM", "id": "8577", "url2": "http://speedtest2-rix.btv.lv/upload.php", "host": "speedtest1-rix.btv.lv:8080", "d": 6343.245171543436}, {"url": "http://bks-speedtest-1.tele2.net/speedtest/upload.php", "lat": "56.9496", "lon": "24.1040", "name": "Riga", "country": "Latvia", "cc": "LV", "sponsor": "Tele2", "id": "8009", "url2": "http://bks-speedtest-1.tele2.net/upload.php", "host": "bks-speedtest-1.tele2.net:8080", "d": 6343.245171543436}, {"url": "http://sp1-lv.deac.eu/speedtest/upload.php", "lat": "56.9496", "lon": "24.1040", "name": "Riga", "country": "Latvia", "cc": "LV", "sponsor": "DEAC", "id": "8455", "url2": "http://sp2-lv.deac.eu/speedtest/upload.php", "host": "sp1-lv.deac.eu:8080", "d": 6343.245171543436}, {"url": "http://speedtest.telenet.lv/speedtest/upload.php", "lat": "56.9496", "lon": "24.1040", "name": "Riga", "country": "Latvia", "cc": "LV", "sponsor": "Telenet, sia", "id": "7322", "url2": "http://speedtest2.telenet.lv/speedtest/upload.php", "host": "speedtest.telenet.lv:8080", "d": 6343.245171543436}], "6343.2243476808735": [{"url": "http://speedtest1.baltcom.lv/speedtest/upload.php", "lat": "56.9496", "lon": "24.1052", "name": "Riga", "country": "Latvia", "cc": "LV", "sponsor": "Baltcom", "id": "13246", "host": "speedtest1.baltcom.lv:8080", "d": 6343.2243476808735}], "6539.395328468053": [{"url": "http://speedtest.kvant-ber.ru/upload.php", "lat": "56.9089", "lon": "60.7950", "name": "Berezovskiy", "country": "RU", "cc": "RU", "sponsor": "KVANT Telecommunications", "id": "16765", "host": "speedtest.kvant-ber.ru:8080", "d": 6539.395328468053}], "6515.705161682262": [{"url": "http://sp1.interra.ru/speedtest/upload.php", "lat": "56.8999", "lon": "59.9521", "name": "Pervouralsk", "country": "Russian Federation", "cc": "RU", "sponsor": "Interra Ltd", "id": "11124", "host": "sp1.interra.ru:8080", "d": 6515.705161682262}], "6214.873497453077": [{"url": "http://tver.speedtest.rt.ru/speedtest/upload.php", "lat": "56.8667", "lon": "35.9167", "name": "Tver", "country": "Russian Federation", "cc": "RU", "sponsor": "Rostelecom", "id": "3265", "url2": "http://tver.speedtest2.rt.ru/speedtest/upload.php", "host": "tver.speedtest.rt.ru:8080", "d": 6214.873497453077}, {"url": "http://speedtest.tver.ertelecom.ru/speedtest/upload.php", "lat": "56.8667", "lon": "35.9167", "name": "Tver", "country": "Russian Federation", "cc": "RU", "sponsor": "DOM.RU", "id": "2732", "url2": "http://st.tver.ertelecom.ru/speedtest/upload.php", "host": "speedtest.tver.ertelecom.ru:8080", "d": 6214.873497453077}, {"url": "http://tver1.bigspeedtest.netbynet.ru/speedtest/upload.php", "lat": "56.8667", "lon": "35.9167", "name": "Tver", "country": "Russian Federation", "cc": "RU", "sponsor": "Net By Net Holding LLC", "id": "11077", "host": "tver-speedtest-srv02.ti.ru:8080", "d": 6214.873497453077}, {"url": "http://speedtest1.tver.comstar-r.ru/speedtest/speedtest/upload.php", "lat": "56.8667", "lon": "35.9167", "name": "Tver", "country": "Russian Federation", "cc": "RU", "sponsor": "MTS", "id": "1909", "url2": "http://speedtest2.tver.comstar-r.ru/speedtest/speedtest/upload.php", "host": "speedtest1.tver.comstar-r.ru:8080", "d": 6214.873497453077}, {"url": "http://st1.regsv.com/speedtest/upload.php", "lat": "56.8667", "lon": "35.9167", "name": "Tver", "country": "Russian Federation", "cc": "RU", "sponsor": "REGIONSVYAZ, LLC", "id": "6814", "url2": "http://st2.regsv.com/speedtest/upload.php", "host": "st1.regsv.com:8080", "d": 6214.873497453077}], "6354.281325143108": [{"url": "http://speedtest.izhevsk.ertelecom.ru/speedtest/upload.php", "lat": "56.8333", "lon": "53.1833", "name": "Izhevsk", "country": "Russian Federation", "cc": "RU", "sponsor": "DOM.RU", "id": "2704", "url2": "http://st.izhevsk.ertelecom.ru/speedtest/upload.php", "host": "speedtest.izhevsk.ertelecom.ru:8080", "d": 6354.281325143108}, {"url": "http://speedtest1.izhevsk.beeline.ru/speedtest/upload.php", "lat": "56.8333", "lon": "53.1833", "name": "Izhevsk", "country": "Russian Federation", "cc": "RU", "sponsor": "Beeline", "id": "6571", "url2": "http://speedtest2.izhevsk.beeline.ru/speedtest/upload.php", "host": "speedtest1.izhevsk.beeline.ru:8080", "d": 6354.281325143108}, {"url": "http://izhevsk.speedtest.rt.ru/speedtest/upload.php", "lat": "56.8333", "lon": "53.1833", "name": "Izhevsk", "country": "Russian Federation", "cc": "RU", "sponsor": "Rostelecom", "id": "3516", "url2": "http://izhevsk.speedtest2.rt.ru/speedtest/upload.php", "host": "izhevsk.speedtest.rt.ru:8080", "d": 6354.281325143108}, {"url": "http://speedtest.izhevsk.net/speedtest/upload.php", "lat": "56.8333", "lon": "53.1833", "name": "Izhevsk", "country": "Russian Federation", "cc": "RU", "sponsor": "Mark-ITT", "id": "1136", "url2": "http://217.14.203.145/speedtest/upload.php", "host": "speedtest.izhevsk.net:8080", "d": 6354.281325143108}, {"url": "http://rapido.izhnt.ru/speedtest/upload.php", "lat": "56.8333", "lon": "53.1833", "name": "Izhevsk", "country": "Russia", "cc": "RU", "sponsor": "MTS", "id": "17014", "host": "rapido.izhnt.ru:8080", "d": 6354.281325143108}, {"url": "http://izhevsk.speedtest-uf.megafon.ru/speedtest/upload.php", "lat": "56.8333", "lon": "53.1833", "name": "Izhevsk", "country": "Russia", "cc": "RU", "sponsor": "MegaFon", "id": "17040", "host": "izhevsk.speedtest-uf.megafon.ru:8080", "d": 6354.281325143108}], "6526.089232457624": [{"url": "http://ekat1.speedtest.corbina.net/speedtest/upload.php", "lat": "56.8333", "lon": "60.5833", "name": "Ekaterinburg", "country": "Russian Federation", "cc": "RU", "sponsor": "Beeline", "id": "6400", "url2": "http://ekat2.speedtest.corbina.net/speedtest/upload.php", "host": "ekat1.speedtest.corbina.net:8080", "d": 6526.089232457624}, {"url": "http://ekaterinburg1.speedtest.rt.ru/speedtest/upload.php", "lat": "56.8333", "lon": "60.5833", "name": "Ekaterinburg", "country": "Russian Federation", "cc": "RU", "sponsor": "Rostelecom", "id": "2602", "url2": "http://ekaterinburg1.speedtest2.rt.ru/speedtest/upload.php", "host": "ekaterinburg1.speedtest.rt.ru:8080", "d": 6526.089232457624}, {"url": "http://speedtest-uf.megafon.ru/speedtest/upload.php", "lat": "56.8333", "lon": "60.5833", "name": "Ekaterinburg", "country": "Russian Federation", "cc": "RU", "sponsor": "OJSC MegaFon", "id": "6437", "url2": "http://sp-uf.megafon.ru/speedtest/upload.php", "host": "speedtest-uf.megafon.ru:8080", "d": 6526.089232457624}, {"url": "http://ookla.ekat.ertelecom.ru/speedtest/upload.php", "lat": "56.8333", "lon": "60.5833", "name": "Yekaterinburg", "country": "Russian Federation", "cc": "RU", "sponsor": "DOM.RU", "id": "5844", "host": "ookla.ekat.ertelecom.ru:8080", "d": 6526.089232457624}, {"url": "http://tarvalon.ural.net/speedtest/upload.php", "lat": "56.8333", "lon": "60.5833", "name": "Ekaterinburg", "country": "Russian Federation", "cc": "RU", "sponsor": "Ural WES", "id": "1930", "url2": "http://195.64.192.47/speedtest/upload.php", "host": "tarvalon.ural.net:8080", "d": 6526.089232457624}, {"url": "http://speedtest3.motivtelecom.ru/speedtest/upload.php", "lat": "56.8333", "lon": "60.5833", "name": "Ekaterinburg", "country": "Ekaterinburg", "cc": "RU", "sponsor": "MOTIV", "id": "5681", "url2": "http://speedtest.motivtelecom.ru/speedtest/upload.php", "host": "speedtest.motivtelecom.ru:8080", "d": 6526.089232457624}, {"url": "http://speedtest.akado-ural.ru/speedtest/upload.php", "lat": "56.8333", "lon": "60.5833", "name": "Ekaterinburg", "country": "Russian Federation", "cc": "RU", "sponsor": "JSC \"AKADO-Ekaterinburg\"", "id": "6866", "url2": "http://speedtest2.akado-ural.ru/speedtest/upload.php", "host": "speedtest.akado-ural.ru:8080", "d": 6526.089232457624}, {"url": "http://speedtest.ekat.ertelecom.ru/speedtest/upload.php", "lat": "56.8333", "lon": "60.5833", "name": "Ekaterinburg", "country": "Russian Federation", "cc": "RU", "sponsor": "DOM.RU", "id": "2705", "url2": "http://st.ekat.ertelecom.ru/speedtest/upload.php", "host": "speedtest.ekat.ertelecom.ru:8080", "d": 6526.089232457624}, {"url": "http://ekt1.companion.tele2.ru/speedtest/upload.php", "lat": "56.8333", "lon": "60.5833", "name": "Ekaterinburg", "country": "Russian Federation", "cc": "RU", "sponsor": "Tele2 Russia", "id": "6616", "url2": "http://176.59.223.150/speedtest/upload.php", "host": "ekt1.companion.tele2.ru:8080", "d": 6526.089232457624}], "6562.1328983388585": [{"url": "http://web.rest.ru/speedtest/speedtest/upload.php", "lat": "56.7803", "lon": "62.0494", "name": "Bogdanovich", "country": "Russian Federation", "cc": "RU", "sponsor": "Info-Net", "id": "5088", "url2": "http://restinform.ru/speedtest/speedtest/upload.php", "host": "web.rest.ru:8080", "d": 6562.1328983388585}], "6197.707354931301": [{"url": "http://st1.dubna.ru/speedtest/upload.php", "lat": "56.7333", "lon": "37.1667", "name": "Dubna", "country": "Russian Federation", "cc": "RU", "sponsor": "Contact Company Ltd.", "id": "2786", "url2": "http://st2.dubna.ru/speedtest/upload.php", "host": "st1.dubna.ru:8080", "d": 6197.707354931301}], "9713.940074826367": [{"url": "http://speedtest.neryungri.ru/speedtest/upload.php", "lat": "56.6733", "lon": "124.7142", "name": "Neryungri", "country": "Russia", "cc": "RU", "sponsor": "CJSC Baikal TransTeleCom", "id": "4542", "url2": "http://speedtest2.neryungri.ru/speedtest/upload.php", "host": "speedtest.neryungri.ru:8080", "d": 9713.940074826367}], "6318.0864522859365": [{"url": "http://speedtest1.btv.lv/upload.php", "lat": "56.6483", "lon": "23.7139", "name": "Jelgava", "country": "Latvia", "cc": "LV", "sponsor": "BALTCOM", "id": "8106", "url2": "http://speedtest2.btv.lv/upload.php", "host": "speedtest1.btv.lv:8080", "d": 6318.0864522859365}], "6248.709857170718": [{"url": "http://yoshkar-ola.speedtest.rt.ru/speedtest/upload.php", "lat": "56.6333", "lon": "47.8667", "name": "Yoshkar-ola", "country": "Russia", "cc": "RU", "sponsor": "Rostelecom", "id": "5583", "url2": "http://yoshkar-ola.speedtest2.rt.ru/speedtest/upload.php", "host": "yoshkar-ola.speedtest.rt.ru:8080", "d": 6248.709857170718}, {"url": "http://speedtest.yola.ertelecom.ru/speedtest/upload.php", "lat": "56.6333", "lon": "47.8667", "name": "Yoshkar-ola", "country": "Russian Federation", "cc": "RU", "sponsor": "DOM.RU", "id": "2662", "url2": "http://st.yola.ertelecom.ru/speedtest/upload.php", "host": "speedtest.yola.ertelecom.ru:8080", "d": 6248.709857170718}], "6517.2405656477595": [{"url": "http://speedtest.icom.net.ru/speedtest/upload.php", "lat": "56.5992", "lon": "61.1003", "name": "Dvurechensk", "country": "Russian Federation", "cc": "RU", "sponsor": "IT service LLC", "id": "6075", "url2": "http://speedtest2.icom.net.ru/speedtest/upload.php", "host": "speedtest.icom.net.ru:8080", "d": 6517.2405656477595}], "6245.9944608352025": [{"url": "http://speedtest1-rez.btv.lv/upload.php", "lat": "56.5127", "lon": "27.3427", "name": "Rezekne", "country": "Latvia", "cc": "LV", "sponsor": "BALTCOM", "id": "8741", "url2": "http://speedtest2-rez.btv.lv/upload.php", "host": "speedtest1-rez.btv.lv:8080", "d": 6245.9944608352025}, {"url": "http://test.starnet.lv/speedtest/upload.php", "lat": "56.5127", "lon": "27.3427", "name": "Rezekne", "country": "Latvia", "cc": "LV", "sponsor": "Starnet SIA", "id": "4451", "url2": "http://ping.starnet.lv/speedtest/upload.php", "host": "test.starnet.lv:8080", "d": 6245.9944608352025}], "6356.840427138109": [{"url": "http://speed.ostkom.lv/speedtest/upload.php", "lat": "56.5117", "lon": "21.0139", "name": "Liepaja", "country": "Latvia", "cc": "LV", "sponsor": "SIA OSTKOM", "id": "2450", "url2": "http://speedtest.ostkom.lv/speedtest/upload.php", "host": "speed.ostkom.lv:8080", "d": 6356.840427138109}, {"url": "http://net.elektrons-k.lv/speedtest/upload.php", "lat": "56.5117", "lon": "21.0139", "name": "Liepaja", "country": "Latvia", "cc": "LV", "sponsor": "Elektrons&K", "id": "2739", "url2": "http://speedtest.elektrons-k.lv/speedtest/upload.php", "host": "net.elektrons-k.lv:8080", "d": 6356.840427138109}], "6562.182180485336": [{"url": "http://speedy.wekudata.com/upload.php", "lat": "56.5058", "lon": "13.0456", "name": "Laholm", "country": "Sweden", "cc": "SE", "sponsor": "Wekudata AB", "id": "12741", "host": "speedy.wekudata.com:8080", "d": 6562.182180485336}], "6266.513266121101": [{"url": "http://speedtest1-jek.btv.lv/upload.php", "lat": "56.5048", "lon": "25.8758", "name": "Jekabpils", "country": "Latvia", "cc": "LV", "sponsor": "BALTCOM", "id": "8740", "url2": "http://speedtest2-jek.btv.lv/upload.php", "host": "speedtest1-jek.btv.lv:8080", "d": 6266.513266121101}], "7447.317330854041": [{"url": "http://tomsk.speedtest.rt.ru/speedtest/upload.php", "lat": "56.5000", "lon": "84.9700", "name": "Tomsk", "country": "Russian Federation", "cc": "RU", "sponsor": "Rostelecom", "id": "5740", "url2": "http://tomsk.speedtest2.rt.ru/speedtest/upload.php", "host": "tomsk.speedtest.rt.ru:8080", "d": 7447.317330854041}, {"url": "http://speedtest.tomtel.ru/speedtest/upload.php", "lat": "56.5000", "lon": "84.9700", "name": "Tomsk", "country": "Russian Federation", "cc": "RU", "sponsor": "Tomtel", "id": "3838", "host": "speedtest.tomtel.ru:8080", "d": 7447.317330854041}, {"url": "http://speedtest.tomsk.ertelecom.ru/speedtest/upload.php", "lat": "56.5000", "lon": "84.9700", "name": "Tomsk", "country": "Russian Federation", "cc": "RU", "sponsor": "DOM.RU", "id": "2943", "url2": "http://st.tomsk.ertelecom.ru/speedtest/upload.php", "host": "speedtest.tomsk.ertelecom.ru:8080", "d": 7447.317330854041}], "6521.545930015072": [{"url": "http://speedtest-kmn-eine.is74.ru/speedtest/upload.php", "lat": "56.4000", "lon": "61.9333", "name": "Kamensk-Uralsky", "country": "Russia", "cc": "RU", "sponsor": "JSC Intersvyaz", "id": "4829", "url2": "http://speedtest-kmn-zwei.is74.ru/speedtest/upload.php", "host": "speedtest-kmn-eine.is74.ru:8080", "d": 6521.545930015072}], "6159.940323960305": [{"url": "Http://test.alexnet.ru/upload.php", "lat": "56.3947", "lon": "38.7120", "name": "Aleksandrov", "country": "Russian Federation", "cc": "RU", "sponsor": "Garant-ATI ltd.", "id": "11035", "host": "test.alexnet.ru:8080", "d": 6159.940323960305}], "6163.7477902437895": [{"url": "http://speedtest1.itnet33.ru/speedtest/upload.php", "lat": "56.3667", "lon": "41.3333", "name": "Kovrov", "country": "Russian Federation", "cc": "RU", "sponsor": "ITNet33", "id": "2642", "url2": "http://speedtest2.itnet33.ru/speedtest/upload.php", "host": "speedtest1.itnet33.ru:8080", "d": 6163.7477902437895}, {"url": "http://speedtest.kovrov.net/speedtest/upload.php", "lat": "56.3667", "lon": "41.3333", "name": "Kovrov", "country": "Russian Federation", "cc": "RU", "sponsor": "KovrovTelecom Ltd.", "id": "2117", "url2": "http://speedtest2.kovrov.net/speedtest/upload.php", "host": "speedtest.kovrov.net:8080", "d": 6163.7477902437895}], "6175.572517555316": [{"url": "http://speedtest.nn.ertelecom.ru/speedtest/upload.php", "lat": "56.3264", "lon": "44.0078", "name": "Nizhny Novgorod", "country": "Russian Federation", "cc": "RU", "sponsor": "DOM.RU", "id": "2698", "url2": "http://st.nn.ertelecom.ru/speedtest/upload.php", "host": "speedtest.nn.ertelecom.ru:8080", "d": 6175.572517555316}, {"url": "http://speedtest.nnov.mts.ru/speedtest/upload.php", "lat": "56.3264", "lon": "44.0078", "name": "Nizhny Novgorod", "country": "Russian Federation", "cc": "RU", "sponsor": "MTS", "id": "4503", "url2": "http://213.87.70.45/speedtest/upload.php", "host": "speedtest.nnov.mts.ru:8080", "d": 6175.572517555316}, {"url": "http://speedtest.nino.ru/upload.php", "lat": "56.3264", "lon": "44.0078", "name": "Nizhny Novgorod", "country": "RU", "cc": "RU", "sponsor": "Virgin Connect", "id": "17429", "host": "speedtest.nino.ru:8080", "d": 6175.572517555316}, {"url": "http://nizhnynovgorod1.speedtest.rt.ru/speedtest/upload.php", "lat": "56.3264", "lon": "44.0078", "name": "Nizhny Novgorod", "country": "Russian Federation", "cc": "RU", "sponsor": "Rostelecom", "id": "2563", "url2": "http://nizhnynovgorod1.speedtest2.rt.ru/speedtest/upload.php", "host": "nizhnynovgorod1.speedtest.rt.ru:8080", "d": 6175.572517555316}, {"url": "http://speedtest-cf.megafon.ru/speedtest/upload.php", "lat": "56.3264", "lon": "44.0078", "name": "Nizhny Novgorod", "country": "Russian Federation", "cc": "RU", "sponsor": "Megafon", "id": "6387", "url2": "http://sp-cf.megafon.ru/speedtest/upload.php", "host": "speedtest-cf.megafon.ru:8080", "d": 6175.572517555316}, {"url": "http://speedtest.pif-paf.ru/speedtest/upload.php", "lat": "56.3264", "lon": "44.0078", "name": "Nizhny Novgorod", "country": "Russian Federation", "cc": "RU", "sponsor": "Comstar-r", "id": "3170", "url2": "http://speedtest1.pif-paf.ru/speedtest/upload.php", "host": "speedtest.pif-paf.ru:8080", "d": 6175.572517555316}, {"url": "http://speedtest1.nnovgorod.beeline.ru/speedtest/upload.php", "lat": "56.3264", "lon": "44.0078", "name": "Nizhny Novgorod", "country": "Russian Federation", "cc": "RU", "sponsor": "Beeline", "id": "7008", "url2": "http://speedtest2.nnovgorod.beeline.ru/speedtest/upload.php", "host": "speedtest1.nnovgorod.beeline.ru:8080", "d": 6175.572517555316}, {"url": "http://speed.ttknn.net/speedtest/upload.php", "lat": "56.3264", "lon": "44.0078", "name": "Nizhny Novgorod", "country": "\u0420\u043e\u0441\u0441\u0438\u0439\u0441\u043a\u0430\u044f \u0424\u0435\u0434\u0435\u0440\u0430\u0446\u0438\u044f", "cc": "RU", "sponsor": "TTK", "id": "11424", "host": "speed.ttknn.net:8080", "d": 6175.572517555316}], "6151.784152440464": [{"url": "http://speedtest.divo.ru/upload.aspx", "lat": "56.3242", "lon": "38.1452", "name": "Sergiyev Posad", "country": "RU", "cc": "RU", "sponsor": "DIVO", "id": "16836", "host": "speedtest.divo.ru:8080", "d": 6151.784152440464}], "6308.249616788629": [{"url": "http://sp1.kli.lt/speedtest/upload.php", "lat": "56.3092", "lon": "22.3415", "name": "Mazeikiai", "country": "Lithuania", "cc": "LT", "sponsor": "KLI LT, UAB", "id": "12638", "host": "sp1.kli.lt:8080", "d": 6308.249616788629}], "6144.142466626641": [{"url": "http://speedtest.ots-net.ru/speedtest/upload.php", "lat": "56.2556", "lon": "37.9891", "name": "Khotkovo", "country": "Russian Federation", "cc": "RU", "sponsor": "OTS Ltd.", "id": "14213", "host": "speedtest.ots-net.ru:8080", "d": 6144.142466626641}], "7989.000189195432": [{"url": "http://speedtest.istokk.ru/speedtest/upload.php", "lat": "56.2017", "lon": "95.7175", "name": "Kansk", "country": "Russian Federation", "cc": "RU", "sponsor": "Istok Ltd", "id": "2851", "url2": "http://st.istokk.ru/speedtest/upload.php", "host": "speedtest.istokk.ru:8080", "d": 7989.000189195432}], "6134.740375211651": [{"url": "http://speedtest1.kirzhachtelecom.ru/upload.php", "lat": "56.1666", "lon": "38.8667", "name": "Kirzhach", "country": "Russian Federation", "cc": "RU", "sponsor": "Kirzhach Telecom", "id": "4960", "host": "speedtest1.kirzhachtelecom.ru:8080", "d": 6134.740375211651}], "6137.413552972491": [{"url": "http://st.rtk33.ru/speedtest/upload.php", "lat": "56.1553", "lon": "40.5927", "name": "Vladimir", "country": "Russian Federation", "cc": "RU", "sponsor": "YONITI", "id": "14431", "host": "st.rtk33.ru:8080", "d": 6137.413552972491}], "6157.519270239061": [{"url": "http://st1.sv-tel.ru/speedtest/upload.php", "lat": "56.1500", "lon": "44.1833", "name": "Kstovo", "country": "Russian Federation", "cc": "RU", "sponsor": "OOO Svyazist", "id": "4154", "url2": "http://st2.sv-tel.ru/speedtest/upload.php", "host": "st1.sv-tel.ru:8080", "d": 6157.519270239061}], "6653.301413026861": [{"url": "http://speed1.rexispeed.dk/speedtest/upload.php", "lat": "56.1364", "lon": "9.1546", "name": "Ikast", "country": "Denmark", "cc": "DK", "sponsor": "Rexi Media", "id": "15573", "host": "speed1.rexispeed.dk:8080", "d": 6653.301413026861}], "6134.390456720332": [{"url": "http://vladimir.speedtest.rt.ru/speedtest/upload.php", "lat": "56.1333", "lon": "40.4167", "name": "Vladimir", "country": "Russian Federation", "cc": "RU", "sponsor": "Rostelecom", "id": "3523", "url2": "http://vladimir.speedtest2.rt.ru/speedtest/upload.php", "host": "vladimir.speedtest.rt.ru:8080", "d": 6134.390456720332}, {"url": "http://109.201.64.254/speedtest/upload.php", "lat": "56.1333", "lon": "40.4167", "name": "Vladimir", "country": "Russian Federation", "cc": "RU", "sponsor": "Mobile TeleSystems Public Joint Stock Company", "id": "7068", "host": "109.201.64.254:8080", "d": 6134.390456720332}], "6186.631448981255": [{"url": "http://chb1.bigspeedtest.netbynet.ru/speedtest/upload.php", "lat": "56.1333", "lon": "47.2500", "name": "Cheboksary", "country": "Russian Federation", "cc": "RU", "sponsor": "Net By Net Holding LLC", "id": "10635", "url2": "http://chb2.bigspeedtest.netbynet.ru/speedtest/upload.php", "host": "chb-speedtest-srv02.ti.ru:8080", "d": 6186.631448981255}, {"url": "http://speedtest.cheb.ertelecom.ru/speedtest/upload.php", "lat": "56.1333", "lon": "47.2500", "name": "Cheboksary", "country": "Russian Federation", "cc": "RU", "sponsor": "DOM.RU", "id": "2731", "url2": "http://st.cheb.ertelecom.ru/speedtest/upload.php", "host": "speedtest.cheb.ertelecom.ru:8080", "d": 6186.631448981255}, {"url": "http://ns1.akvi.net/speedtest/upload.php", "lat": "56.1333", "lon": "47.2500", "name": "Cheboksary", "country": "Russian Federation", "cc": "RU", "sponsor": "LLC AKVILON", "id": "6623", "url2": "http://ns1.akvi.net/speedtest2/upload.php", "host": "ns1.akvi.net:8080", "d": 6186.631448981255}, {"url": "http://speedtest.info-link.ru/speedtest/upload.php", "lat": "56.1333", "lon": "47.2500", "name": "Cheboksary", "country": "Russian Federation", "cc": "RU", "sponsor": "Infolink", "id": "3555", "url2": "http://speedtest2.info-link.ru/speedtest/upload.php", "host": "speedtest.info-link.ru:8080", "d": 6186.631448981255}, {"url": "http://speed.etherway.ru/speedtest/upload.php", "lat": "56.1333", "lon": "47.2500", "name": "Cheboksary", "country": "Russian Federation", "cc": "RU", "sponsor": "Etherway", "id": "1215", "host": "speed.etherway.ru:8080", "d": 6186.631448981255}], "6547.678932915313": [{"url": "http://speedtest.shadrinsk.net/speedtest/upload.php", "lat": "56.1333", "lon": "63.6500", "name": "Shadrinsk", "country": "Russian Federation", "cc": "RU", "sponsor": "Courier Plus ISP", "id": "995", "host": "speedtest.shadrinsk.net:8080", "d": 6547.678932915313}], "7857.2053225047175": [{"url": "http://sanek508.net/mini/speedtest/upload.php", "lat": "56.1333", "lon": "93.3667", "name": "Sosnovoborsk", "country": "Russian Federation", "cc": "RU", "sponsor": "Sanek508.net", "id": "4407", "url2": "http://alpha-t.org/mini/speedtest/upload.php", "host": "sanek508.net:8080", "d": 7857.2053225047175}], "8316.409122410729": [{"url": "http://speed1.btk.teleos.ru/upload.php", "lat": "56.1167", "lon": "101.6000", "name": "Bratsk", "country": "Russian Federation", "cc": "RU", "sponsor": "Teleos-1", "id": "8574", "url2": "http://speed2.btk.teleos.ru/upload.php", "host": "speed.btk.teleos.ru:8080", "d": 8316.409122410729}, {"url": "http://speed.nsplus.ru/upload.php", "lat": "56.1167", "lon": "101.6000", "name": "Bratsk", "country": "Russian Federation", "cc": "RU", "sponsor": "\u0413\u041a\u0421\u0412\u042f\u0417\u042c", "id": "12513", "host": "speed.nsplus.ru:8080", "d": 8316.409122410729},